SUB_TYPE,SUB_TYPE_DESC,DATA_STATUS,DATA_STATUS_DISPLAY,STATUS_CLASS,ADDRESS,URL,LAST_UPDATED,LATITUDE,LONGITUDE,NEIGHBORHOOD
YEAR-4  ,VFPR Second Year Registration,CLOSE-V ,Case Closed - Building Vacant,CLOS,1126 SETON AV                        ,http://cagismaps.hamilton-co.org/PropertyActivity/CagisReport?APD=VFP1600685,09/28/2017 12:00:00 AM +0000,39.11262789,-84.57609265,EAST PRICE HILL
YEAR-4  ,VFPR Second Year Registration,RENEWAL ,Renewal of Previous Year Registration,,4822 MORSE ST                        ,http://cagismaps.hamilton-co.org/PropertyActivity/CagisReport?APD=VFP1600339,09/08/2017 12:00:00 AM +0000,39.12215505,-84.41482354,LINWOOD
YEAR-4  ,VFPR Second Year Registration,CLOSE-V ,Case Closed - Building Vacant,CLOS,3818 HERRON AV                       ,http://cagismaps.hamilton-co.org/PropertyActivity/CagisReport?APD=VFP1700304,08/30/2017 12:00:00 AM +0000,39.15652366,-84.55293321,SOUTH CUMMINSVILLE
YEAR-4  ,VFPR Second Year Registration,CLOSE-V ,Case Closed - Building Vacant,CLOS,1037 BEECH AV                        ,http://cagismaps.hamilton-co.org/PropertyActivity/CagisReport?APD=VFP1600165,08/31/2016 12:00:00 AM +0000,39.11125199,-84.57777586,WEST PRICE HILL
YEAR-4,VFPR Second Year Registration,CLOSE-V,Case Closed - Building Vacant,CLOS,4763 DALE AV,http://cagismaps.hamilton-co.org/PropertyActivity/CagisReport?APD=VFP1700578,01/22/2018 12:00:00 AM +0000,39.11184081,-84.59829258,WEST PRICE HILL
YEAR-4,VFPR Second Year Registration,CIVIL-NM,Vacant - Not Maintained - Civil Fine Pending,OPEN,4822 MORSE ST,http://cagismaps.hamilton-co.org/PropertyActivity/CagisReport?APD=VFP1700131,01/26/2018 12:00:00 AM +0000,39.12215505,-84.41482354,LINWOOD
YEAR-3  ,VFPR Second Year Registration,CIVIL-NM,Vacant - Not Maintained - Civil Fine Pending,OPEN,1079 GRAND AV                        ,http://cagismaps.hamilton-co.org/PropertyActivity/CagisReport?APD=VFP1700613,12/19/2017 12:00:00 AM +0000,39.11264094,-84.56074401,EAST PRICE HILL
YEAR-3  ,VFPR Second Year Registration,CLOSE-V ,Case Closed - Building Vacant,CLOS,805 RIDGEWAY AV                     ,http://cagismaps.hamilton-co.org/PropertyActivity/CagisReport?APD=VFP1700468,12/15/2017 12:00:00 AM +0000,39.13944163,-84.49087105,AVONDALE
YEAR-3  ,VFPR Second Year Registration,CIVIL-NM,Vacant - Not Maintained - Civil Fine Pending,OPEN,3077 MASSACHUSETTS AV                ,http://cagismaps.hamilton-co.org/PropertyActivity/CagisReport?APD=VFP1700701,12/27/2017 12:00:00 AM +0000,39.1401497,-84.53565424,CAMP WASHINGTON
YEAR-3  ,VFPR Second Year Registration,REGISTRD,Vacant - Registered Vacant,OPEN,2735 WAGNER ST                       ,http://cagismaps.hamilton-co.org/PropertyActivity/CagisReport?APD=VFP1700469,12/27/2017 12:00:00 AM +0000,39.13133202,-84.52698552,CUF
YEAR-3  ,VFPR Second Year Registration,CLOSE-V ,Case Closed - Building Vacant,CLOS,7201 SCOTTWOOD AV                    ,http://cagismaps.hamilton-co.org/PropertyActivity/CagisReport?APD=VFP1700488,12/01/2017 12:00:00 AM +0000,39.19335895,-84.46240041,ROSELAWN
YEAR-3  ,VFPR Second Year Registration,CLOSE-O ,Case Closed - Building Occupied,CLOS,5548 DUNNING PL                      ,http://cagismaps.hamilton-co.org/PropertyActivity/CagisReport?APD=VFP1600395,11/28/2017 12:00:00 AM +0000,39.1561534,-84.39781329,MADISONVILLE
YEAR-3  ,VFPR Second Year Registration,CLOSE-V ,Case Closed - Building Vacant,CLOS,137 WHIPPLE ST                      ,http://cagismaps.hamilton-co.org/PropertyActivity/CagisReport?APD=VFP1600324,11/28/2017 12:00:00 AM +0000,39.10627989,-84.68416886,SAYLER PARK
YEAR-3  ,VFPR Second Year Registration,REGISTRD,Vacant - Registered Vacant,OPEN,1723 KINNEY AV                       ,http://cagismaps.hamilton-co.org/PropertyActivity/CagisReport?APD=VFP1700617,11/27/2017 12:00:00 AM +0000,39.13616957,-84.47294905,EVANSTON
YEAR-3  ,VFPR Second Year Registration,VOID    ,Case Voided,CLOS,3068 HEGRY CIR                       ,http://cagismaps.hamilton-co.org/PropertyActivity/CagisReport?APD=VFP1700579,11/14/2017 12:00:00 AM +0000,39.13112078,-84.6037341,WESTWOOD
YEAR-3  ,VFPR Second Year Registration,CLOSE-V ,Case Closed - Building Vacant,CLOS,6566 DALY RD                         ,http://cagismaps.hamilton-co.org/PropertyActivity/CagisReport?APD=VFP1600809,11/09/2017 12:00:00 AM +0000,39.20931152,-84.5313822,COLLEGE HILL
YEAR-3  ,VFPR Second Year Registration,CLOSE-V ,Case Closed - Building Vacant,CLOS,1283 BRUSHWOOD AV                    ,http://cagismaps.hamilton-co.org/PropertyActivity/CagisReport?APD=VFP1700586,11/07/2017 12:00:00 AM +0000,39.21415298,-84.53688481,COLLEGE HILL
YEAR-3  ,VFPR Second Year Registration,CLOSE-V ,Case Closed - Building Vacant,CLOS,1108 ARCHLAND DR                     ,http://cagismaps.hamilton-co.org/PropertyActivity/CagisReport?APD=VFP1700471,11/01/2017 12:00:00 AM +0000,39.21036684,-84.53008539,COLLEGE HILL
YEAR-3  ,VFPR Second Year Registration,CLOSE-O ,Case Closed - Building Occupied,CLOS,6527 RIPPLEWOOD LN                   ,http://cagismaps.hamilton-co.org/PropertyActivity/CagisReport?APD=VFP1700395,10/30/2017 12:00:00 AM +0000,39.09304909,-84.37711954,MT. WASHINGTON
YEAR-3  ,Foreclosed Property,RENEWAL ,Renewal of Previous Year Registration,,2717 EDEN AV                         ,http://cagismaps.hamilton-co.org/propertyactivity/cagisreport?APD=VFP1500868,10/30/2017 12:00:00 AM +0000,39.13091773,-84.50644086,CORRYVILLE
YEAR-3  ,VFPR Second Year Registration,CLOSE-V ,Case Closed - Building Vacant,CLOS,2450 MCMICKEN AV                     ,http://cagismaps.hamilton-co.org/PropertyActivity/CagisReport?APD=VFP1700585,10/12/2017 12:00:00 AM +0000,39.12704669,-84.53128002,CUF
YEAR-3  ,VFPR Second Year Registration,RENEWAL ,Renewal of Previous Year Registration,,4763 DALE AV                         ,http://cagismaps.hamilton-co.org/PropertyActivity/CagisReport?APD=VFP1700399,10/09/2017 12:00:00 AM +0000,39.11184081,-84.59829258,WEST PRICE HILL
YEAR-3  ,VFPR Second Year Registration,REGISTRD,Vacant - Registered Vacant,OPEN,1426 CORVALLIS AV                    ,http://cagismaps.hamilton-co.org/PropertyActivity/CagisReport?APD=VFP1700476,09/26/2017 12:00:00 AM +0000,39.19638957,-84.46523445,ROSELAWN
YEAR-3  ,VFPR Second Year Registration,RENEWAL ,Renewal of Previous Year Registration,,3695 ALLVIEW CIR                     ,http://cagismaps.hamilton-co.org/PropertyActivity/CagisReport?APD=VFP1600749,09/26/2017 12:00:00 AM +0000,39.13833685,-84.62099759,WESTWOOD
YEAR-3  ,VFPR Third Year Registration,RENEWAL ,Renewal of Previous Year Registration,,1126 SETON AV                        ,http://cagismaps.hamilton-co.org/propertyactivity/cagisreport?APD=VFP1500623,09/08/2017 12:00:00 AM +0000,39.11262789,-84.57609265,EAST PRICE HILL
YEAR-3  ,VFPR Second Year Registration,RENEWAL ,Renewal of Previous Year Registration,,1073 ALBANY TER                      ,http://cagismaps.hamilton-co.org/PropertyActivity/CagisReport?APD=VFP1600682,09/08/2017 12:00:00 AM +0000,39.19656929,-84.53416202,COLLEGE HILL
YEAR-3  ,VFPR Third Year Registration,RENEWAL ,Renewal of Previous Year Registration,,1035 FISK AV                         ,http://cagismaps.hamilton-co.org/propertyactivity/cagisreport?APD=VFP1500683,09/08/2017 12:00:00 AM +0000,39.1119501,-84.58676472,WEST PRICE HILL
YEAR-3  ,VFPR Second Year Registration,RENEWAL ,Renewal of Previous Year Registration,,3818 HERRON AV                       ,http://cagismaps.hamilton-co.org/PropertyActivity/CagisReport?APD=VFP1600387,09/08/2017 12:00:00 AM +0000,39.15652366,-84.55293321,SOUTH CUMMINSVILLE
YEAR-3  ,VFPR Third Year Registration,RENEWAL ,Renewal of Previous Year Registration,,1131 CHEREVILLA LN                   ,http://cagismaps.hamilton-co.org/propertyactivity/cagisreport?APD=VFP1500421,09/08/2017 12:00:00 AM +0000,39.11522993,-84.60555736,WEST PRICE HILL
YEAR-3  ,VFPR Second Year Registration,RENEWAL ,Renewal of Previous Year Registration,,3768 BONFIELD DR                     ,http://cagismaps.hamilton-co.org/PropertyActivity/CagisReport?APD=VFP1600681,09/08/2017 12:00:00 AM +0000,39.15214205,-84.5044965,AVONDALE
YEAR-3  ,VFPR Second Year Registration,CLOSE-V ,Case Closed - Building Vacant,CLOS,6256 STURDY AV                       ,http://cagismaps.hamilton-co.org/PropertyActivity/CagisReport?APD=VFP1700388,09/06/2017 12:00:00 AM +0000,39.09685645,-84.38449884,MT. WASHINGTON
YEAR-3  ,VFPR Second Year Registration,CLOSE-V ,Case Closed - Building Vacant,CLOS,2002 QUEEN CITY AV                   ,http://cagismaps.hamilton-co.org/PropertyActivity/CagisReport?APD=VFP1700120,08/29/2017 12:00:00 AM +0000,39.12828158,-84.56644913,SOUTH FAIRMOUNT
YEAR-3  ,VFPR Second Year Registration,RENEWAL ,Renewal of Previous Year Registration,,3739 BOUDINOT AV                     ,http://cagismaps.hamilton-co.org/PropertyActivity/CagisReport?APD=VFP1600803,09/08/2017 12:00:00 AM +0000,39.158691,-84.60287308,WESTWOOD
YEAR-3  ,VFPR Second Year Registration,CLOSE-O ,Case Closed - Building Occupied,CLOS,2809 LAFEUILLE AV                    ,http://cagismaps.hamilton-co.org/PropertyActivity/CagisReport?APD=VFP1600402,07/28/2017 12:00:00 AM +0000,39.13626349,-84.59105511,WESTWOOD
YEAR-3  ,VFPR Second Year Registration,REGISTRD,Vacant - Registered Vacant,OPEN,6405 ASPEN WY                        ,http://cagismaps.hamilton-co.org/PropertyActivity/CagisReport?APD=VFP1700129,07/24/2017 12:00:00 AM +0000,39.20814948,-84.55216171,COLLEGE HILL
YEAR-3  ,VFPR Second Year Registration,REGISTRD,Vacant - Registered Vacant,OPEN,543 NORWAY AV                       ,http://cagismaps.hamilton-co.org/PropertyActivity/CagisReport?APD=VFP1700383,06/28/2017 12:00:00 AM +0000,39.15198042,-84.49507784,AVONDALE
YEAR-3  ,VFPR Second Year Registration,CLOSE-V ,Case Closed - Building Vacant,CLOS,1806 DALE RD                         ,http://cagismaps.hamilton-co.org/PropertyActivity/CagisReport?APD=VFP1700292,06/22/2017 12:00:00 AM +0000,39.17703663,-84.46246679,BOND HILL
YEAR-3  ,VFPR Second Year Registration,CLOSE-V ,Case Closed - Building Vacant,CLOS,3415 HARTFORD PL                     ,http://cagismaps.hamilton-co.org/PropertyActivity/CagisReport?APD=VFP1600619,06/16/2017 12:00:00 AM +0000,39.14161692,-84.48989933,AVONDALE
YEAR-3  ,VFPR Second Year Registration,CLOSE-V ,Case Closed - Building Vacant,CLOS,241 OAKMONT ST                      ,http://cagismaps.hamilton-co.org/PropertyActivity/CagisReport?APD=VFP1700121,06/15/2017 12:00:00 AM +0000,39.20692106,-84.4686672,HARTWELL
YEAR-3  ,VFPR Second Year Registration,REGISTRD,Vacant - Registered Vacant,OPEN,2415 HOMESTEAD PL                    ,http://cagismaps.hamilton-co.org/PropertyActivity/CagisReport?APD=VFP1700293,06/05/2017 12:00:00 AM +0000,39.13013099,-84.57361572,WESTWOOD
YEAR-3  ,VFPR Second Year Registration,CLOSE-V ,Case Closed - Building Vacant,CLOS,2754 WERKASTLE LN                    ,http://cagismaps.hamilton-co.org/PropertyActivity/CagisReport?APD=VFP1600611,03/30/2017 12:00:00 AM +0000,39.14143417,-84.59246794,WESTWOOD
YEAR-3  ,VFPR Second Year Registration,CLOSE-V ,Case Closed - Building Vacant,CLOS,3036 MCHENRY AV                      ,http://cagismaps.hamilton-co.org/PropertyActivity/CagisReport?APD=VFP1700004,03/20/2017 12:00:00 AM +0000,39.14179628,-84.57966957,WESTWOOD
YEAR-3  ,VFPR Second Year Registration,FORCLOSD,Occupied - Foreclosure Filed - Still Occupied,OPEN,530 CLINTON SPRINGS AV              ,http://cagismaps.hamilton-co.org/PropertyActivity/CagisReport?APD=VFP1700003,01/12/2017 12:00:00 AM +0000,39.15656945,-84.49428391,NORTH AVONDALE - PADDOCK HILLS
YEAR-3  ,VFPR Second Year Registration,CLOSE-V ,Case Closed - Building Vacant,CLOS,6322 SAVANNAH AV                     ,http://cagismaps.hamilton-co.org/PropertyActivity/CagisReport?APD=VFP1600807,01/11/2017 12:00:00 AM +0000,39.20737727,-84.55374177,COLLEGE HILL
YEAR-3  ,VFPR Second Year Registration,VOID    ,Case Voided,CLOS,4227 LANGLAND ST                     ,http://cagismaps.hamilton-co.org/PropertyActivity/CagisReport?APD=VFP1600768,11/29/2016 12:00:00 AM +0000,39.16421893,-84.53829874,NORTHSIDE
YEAR-3  ,VFPR Second Year Registration,CLOSE-V ,Case Closed - Building Vacant,CLOS,2105 BURNET AV                       ,http://cagismaps.hamilton-co.org/PropertyActivity/CagisReport?APD=VFP1600748,11/14/2016 12:00:00 AM +0000,39.1193246,-84.50299705,MT. AUBURN
YEAR-3  ,VFPR Second Year Registration,CLOSE-V ,Case Closed - Building Vacant,CLOS,2917 FISCHER PL                      ,http://cagismaps.hamilton-co.org/PropertyActivity/CagisReport?APD=VFP1600408,10/04/2016 12:00:00 AM +0000,39.14543316,-84.59443156,WESTWOOD
YEAR-3  ,VFPR Second Year Registration,CLOSE-V ,Case Closed - Building Vacant,CLOS,1182 CEDAR AV                        ,http://cagismaps.hamilton-co.org/PropertyActivity/CagisReport?APD=VFP1600616,01/11/2017 12:00:00 AM +0000,39.19828267,-84.53934358,COLLEGE HILL
YEAR-3  ,VFPR Second Year Registration,CLOSE-O ,Case Closed - Building Occupied,CLOS,1164 CHEYENNE DR                     ,http://cagismaps.hamilton-co.org/PropertyActivity/CagisReport?APD=VFP1600613,09/28/2016 12:00:00 AM +0000,39.18533108,-84.47827472,BOND HILL
YEAR-3  ,VFPR Second Year Registration,CLOSE-V ,Case Closed - Building Vacant,CLOS,5723 NAHANT AV                       ,http://cagismaps.hamilton-co.org/PropertyActivity/CagisReport?APD=VFP1600760,01/24/2017 12:00:00 AM +0000,39.19533086,-84.55115549,COLLEGE HILL
YEAR-3  ,VFPR Second Year Registration,CLOSE-V ,Case Closed - Building Vacant,CLOS,3330 CAVANAUGH AV                    ,http://cagismaps.hamilton-co.org/PropertyActivity/CagisReport?APD=VFP1600674,01/05/2017 12:00:00 AM +0000,39.14369749,-84.57272857,EAST WESTWOOD
YEAR-3  ,VFPR Second Year Registration,CLOSE-V ,Case Closed - Building Vacant,CLOS,221 KINSEY AV                       ,http://cagismaps.hamilton-co.org/PropertyActivity/CagisReport?APD=VFP1600759,01/17/2017 12:00:00 AM +0000,39.12506895,-84.50400687,MT. AUBURN
YEAR-3  ,VFPR Second Year Registration,CLOSE-O ,Case Closed - Building Occupied,CLOS,1232 DROTT AV                        ,http://cagismaps.hamilton-co.org/PropertyActivity/CagisReport?APD=VFP1600561,12/01/2016 12:00:00 AM +0000,39.1149781,-84.56845199,EAST PRICE HILL
YEAR-3  ,VFPR Third Year Registration,CLOSE-V ,Case Closed - Building Vacant,CLOS,6819 MERWIN AV                       ,http://cagismaps.hamilton-co.org/propertyactivity/cagisreport?APD=VFP1500013,08/11/2016 12:00:00 AM +0000,39.15276802,-84.37921858,MADISONVILLE
YEAR-3  ,VFPR Third Year Registration,RENEWAL ,Renewal of Previous Year Registration,,1037 BEECH AV                        ,http://cagismaps.hamilton-co.org/propertyactivity/cagisreport?APD=VFP1500011,03/15/2016 12:00:00 AM +0000,39.11125199,-84.57777586,WEST PRICE HILL
YEAR-3  ,VFPR Second Year Registration,CLOSE-V ,Case Closed - Building Vacant,CLOS,5529 DAVIES PL                       ,http://cagismaps.hamilton-co.org/PropertyActivity/CagisReport?APD=VFP1600088,09/06/2016 12:00:00 AM +0000,39.16490318,-84.39796841,MADISONVILLE
YEAR-3  ,VFPR Third Year Registration,CLOSE-V ,Case Closed - Building Vacant,CLOS,1166 GROESBECK RD                    ,http://cagismaps.hamilton-co.org/propertyactivity/cagisreport?APD=VFP1500040,11/30/2015 11:59:41 AM +0000,39.19449919,-84.5385067,COLLEGE HILL
YEAR-3  ,VFPR Third Year Registration,CLOSE-V ,Case Closed - Building Vacant,CLOS,1787 TUXWORTH AV                     ,http://cagismaps.hamilton-co.org/propertyactivity/cagisreport?APD=VFP1500039,05/05/2016 12:00:00 AM +0000,39.12240917,-84.5925083,WEST PRICE HILL
YEAR-3  ,VFPR Third Year Registration,CLOSE-V ,Case Closed - Building Vacant,CLOS,1119 WILMONT CT                      ,http://cagismaps.hamilton-co.org/propertyactivity/cagisreport?APD=VFP1500020,07/27/2016 12:00:00 AM +0000,39.20128046,-84.53550206,COLLEGE HILL
YEAR-3  ,VFPR Third Year Registration,CLOSE-V ,Case Closed - Building Vacant,CLOS,3118 RUTH AV                         ,http://cagismaps.hamilton-co.org/propertyactivity/cagisreport?APD=VFP1500402,12/28/2016 12:00:00 AM +0000,39.13987739,-84.60805884,WESTWOOD
YEAR-3  ,VFPR Third Year Registration,VOID    ,Case Voided,CLOS,4555 CRESAP AV                       ,http://cagismaps.hamilton-co.org/propertyactivity/cagisreport?APD=VFP1500625,10/26/2015 10:58:17 AM +0000,39.17296232,-84.54910893,NORTHSIDE
YEAR-3  ,VFPR Third Year Registration,CLOSE-V ,Case Closed - Building Vacant,CLOS,4401 WATTERSON ST                    ,http://cagismaps.hamilton-co.org/propertyactivity/cagisreport?APD=VFP1400344,12/09/2014 01:40:51 PM +0000,39.1533907,-84.39192946,MADISONVILLE
YEAR-3,VFPR Second Year Registration,CIVIL-NM,Vacant - Not Maintained - Civil Fine Pending,OPEN,2612.27487684729 EARNSHAW AV                     ,http://cagismaps.hamilton-co.org/PropertyActivity/CagisReport?APD=VFP1700306,12/26/2017 12:00:00 AM +0000,39.15342264,-84.52854237,MT. AUBURN
YEAR-3,VFPR Second Year Registration,CLOSE-V,Case Closed - Building Vacant,CLOS,3628 EVANSTON AV,http://cagismaps.hamilton-co.org/PropertyActivity/CagisReport?APD=VFP1700591,01/11/2018 12:00:00 AM +0000,39.14529561,-84.4624272,EVANSTON
YEAR-3,VFPR Second Year Registration,CLOSE-V,Case Closed - Building Vacant,CLOS,727 PURCELL AV,http://cagismaps.hamilton-co.org/PropertyActivity/CagisReport?APD=VFP1700475,01/18/2018 12:00:00 AM +0000,39.10517981,-84.56501966,EAST PRICE HILL
YEAR-3,VFPR Second Year Registration,CIVIL-NR,Vacant - Not Registered - Civil Fine Pending,OPEN,2025 BALTIMORE AV,http://cagismaps.hamilton-co.org/PropertyActivity/CagisReport?APD=VFP1700700,01/22/2018 12:00:00 AM +0000,39.14053942,-84.56131486,NORTH FAIRMOUNT
YEAR-3,VFPR Second Year Registration,REGISTRD,Vacant - Registered Vacant,OPEN,450 CONSIDINE AV,http://cagismaps.hamilton-co.org/PropertyActivity/CagisReport?APD=VFP1700484,01/22/2018 12:00:00 AM +0000,39.09942196,-84.56386728,EAST PRICE HILL
YEAR-3,VFPR Second Year Registration,REGISTRD,Vacant - Registered Vacant,OPEN,1437 AMBROSE AV,http://cagismaps.hamilton-co.org/PropertyActivity/CagisReport?APD=VFP1700699,01/22/2018 12:00:00 AM +0000,39.20054318,-84.54354243,COLLEGE HILL
YEAR-3,VFPR Second Year Registration,CLOSE-V,Case Closed - Building Vacant,CLOS,1409 BEECH AV,http://cagismaps.hamilton-co.org/PropertyActivity/CagisReport?APD=VFP1700619,01/23/2018 12:00:00 AM +0000,39.11908987,-84.57702731,EAST PRICE HILL
YEAR-3,FORECLOSED PROPERTY,REGISTRD,Vacant - Registered Vacant,OPEN,2234 GRAEBE AV,http://cagismaps.hamilton-co.org/PropertyActivity/CagisReport?APD=VFP1700493,01/23/2018 12:00:00 AM +0000,39.12194033,-84.56289572,EAST PRICE HILL
YEAR-3,VFPR Second Year Registration,CLOSE-V,Case Closed - Building Vacant,CLOS,4894 RAPID RUN RD,http://cagismaps.hamilton-co.org/PropertyActivity/CagisReport?APD=VFP1700019,01/24/2018 12:00:00 AM +0000,39.11148469,-84.60309038,WEST PRICE HILL
YEAR-3,VFPR Second Year Registration,CLOSE-V,Case Closed - Building Vacant,CLOS,3781 ST LAWRENCE AV,http://cagismaps.hamilton-co.org/PropertyActivity/CagisReport?APD=VFP1700047,01/29/2018 12:00:00 AM +0000,39.11007456,-84.57620059,EAST PRICE HILL
YEAR-3,VFPR Second Year Registration,REGISTRD,Vacant - Registered Vacant,OPEN,2717 EDEN AV,http://cagismaps.hamilton-co.org/PropertyActivity/CagisReport?APD=VFP1800008,02/02/2018 12:00:00 AM +0000,39.13091773,-84.50644086,CORRYVILLE
YEAR-3,VFPR Second Year Registration,CLOSE-V,Case Closed - Building Vacant,CLOS,2839 MORNINGRIDGE DR,http://cagismaps.hamilton-co.org/PropertyActivity/CagisReport?APD=VFP1700310,02/06/2018 12:00:00 AM +0000,39.13703596,-84.58750925,WESTWOOD
YEAR-3,VFPR Second Year Registration,REGISTRD,Vacant - Registered Vacant,OPEN,5743 COLERAIN AV,http://cagismaps.hamilton-co.org/PropertyActivity/CagisReport?APD=VFP1700623,02/09/2018 12:00:00 AM +0000,39.19859548,-84.5786686,MT. AIRY
YEAR-3,VFPR Second Year Registration,CIVIL-NM,Vacant - Not Maintained - Civil Fine Pending,OPEN,3821 ZINSLE AV,http://cagismaps.hamilton-co.org/PropertyActivity/CagisReport?APD=VFP1700058,02/15/2018 12:00:00 AM +0000,39.18538178,-84.40652132,KENNEDY HEIGHTS
YEAR-3,VFPR Second Year Registration,CLOSE-V,Case Closed - Building Vacant,CLOS,1117 ALCLIFF LN,http://cagismaps.hamilton-co.org/PropertyActivity/CagisReport?APD=VFP1700116,02/22/2018 12:00:00 AM +0000,39.11616802,-84.61542508,WEST PRICE HILL
YEAR-3,VFPR Second Year Registration,CLOSE-V,Case Closed - Building Vacant,CLOS,1953 CONNECTICUT AV,http://cagismaps.hamilton-co.org/PropertyActivity/CagisReport?APD=VFP1700301,02/23/2018 12:00:00 AM +0000,39.20028826,-84.55734655,COLLEGE HILL
YEAR-3,VFPR Second Year Registration,REGISTRD,Vacant - Registered Vacant,OPEN,4205 DANE AV,http://cagismaps.hamilton-co.org/PropertyActivity/CagisReport?APD=VFP1800004,02/28/2018 12:00:00 AM +0000,39.16348317,-84.53296455,NORTHSIDE
YEAR-3,VFPR Second Year Registration,REGISTRD,Vacant - Registered Vacant,OPEN,4223 MAD ANTHONY ST,http://cagismaps.hamilton-co.org/PropertyActivity/CagisReport?APD=VFP1800017,02/28/2018 12:00:00 AM +0000,39.16398697,-84.53571317,NORTHSIDE
YEAR-2  ,VFPR Second Year Registration,CIVIL-NM,Vacant - Not Maintained - Civil Fine Pending,OPEN,343 EARNSHAW AV                     ,http://cagismaps.hamilton-co.org/PropertyActivity/CagisReport?APD=VFP1700306,12/26/2017 12:00:00 AM +0000,39.12057738,-84.50201736,MT. AUBURN
YEAR-2  ,VFPR Second Year Registration,CLOSE-V ,Case Closed - Building Vacant,CLOS,1743 FAIRMOUNT AV                    ,http://cagismaps.hamilton-co.org/PropertyActivity/CagisReport?APD=VFP1700313,12/20/2017 12:00:00 AM +0000,39.12968941,-84.55182185,NORTH FAIRMOUNT
YEAR-2  ,VFPR Second Year Registration,CLOSE-V ,Case Closed - Building Vacant,CLOS,750 MCMAKIN AV                      ,http://cagismaps.hamilton-co.org/PropertyActivity/CagisReport?APD=VFP1700393,12/19/2017 12:00:00 AM +0000,39.17255807,-84.518599,SPRING GROVE VILLAGE
YEAR-2  ,VFPR Second Year Registration,CLOSE-O ,Case Closed - Building Occupied,CLOS,1227 CAROLINA AV                     ,http://cagismaps.hamilton-co.org/PropertyActivity/CagisReport?APD=VFP1600205,12/19/2017 12:00:00 AM +0000,39.17522195,-84.47666349,BOND HILL
YEAR-2  ,VFPR Second Year Registration,CLOSE-V ,Case Closed - Building Vacant,CLOS,3623 GLENWAY AV                      ,http://cagismaps.hamilton-co.org/PropertyActivity/CagisReport?APD=VFP1700611,12/15/2017 12:00:00 AM +0000,39.11367562,-84.57125862,EAST PRICE HILL
YEAR-2  ,VFPR Second Year Registration,CLOSE-O ,Case Closed - Building Occupied,CLOS,1021 CARSON AV                       ,http://cagismaps.hamilton-co.org/PropertyActivity/CagisReport?APD=VFP1700398,12/15/2017 12:00:00 AM +0000,39.1123611,-84.573046,EAST PRICE HILL
YEAR-2  ,VFPR Second Year Registration,REGISTRD,Vacant - Registered Vacant,OPEN,2431 NORTH BEND RD                   ,http://cagismaps.hamilton-co.org/PropertyActivity/CagisReport?APD=VFP1700635,12/14/2017 12:00:00 AM +0000,39.19401539,-84.5663215,COLLEGE HILL
YEAR-2  ,VFPR Second Year Registration,RENEWAL ,Renewal of Previous Year Registration,,3077 MASSACHUSETTS AV                ,http://cagismaps.hamilton-co.org/PropertyActivity/CagisReport?APD=VFP1700577,12/14/2017 12:00:00 AM +0000,39.1401497,-84.53565424,CAMP WASHINGTON
YEAR-2  ,VFPR Second Year Registration,CLOSE-O ,Case Closed - Building Occupied,CLOS,3068 HEGRY CIR                       ,http://cagismaps.hamilton-co.org/PropertyActivity/CagisReport?APD=VFP1700474,12/14/2017 12:00:00 AM +0000,39.13112078,-84.6037341,WESTWOOD
YEAR-2  ,VFPR Second Year Registration,CLOSE-V ,Case Closed - Building Vacant,CLOS,6679 PARKLAND AV                     ,http://cagismaps.hamilton-co.org/PropertyActivity/CagisReport?APD=VFP1700397,12/14/2017 12:00:00 AM +0000,39.11462565,-84.69322412,SAYLER PARK
YEAR-2  ,VFPR Second Year Registration,RENEWAL ,Renewal of Previous Year Registration,,2025 BALTIMORE AV                    ,http://cagismaps.hamilton-co.org/PropertyActivity/CagisReport?APD=VFP1600629,12/14/2017 12:00:00 AM +0000,39.14053942,-84.56131486,NORTH FAIRMOUNT
YEAR-2  ,VFPR Second Year Registration,CLOSE-O ,Case Closed - Building Occupied,CLOS,6736 BRAMBLE AV                      ,http://cagismaps.hamilton-co.org/PropertyActivity/CagisReport?APD=VFP1700115,12/12/2017 12:00:00 AM +0000,39.15112169,-84.38133312,MADISONVILLE
YEAR-2  ,VFPR Second Year Registration,CIVIL-NM,Vacant - Not Maintained - Civil Fine Pending,OPEN,2717 EDEN AV                         ,http://cagismaps.hamilton-co.org/PropertyActivity/CagisReport?APD=VFP1700022,12/11/2017 12:00:00 AM +0000,39.13091773,-84.50644086,CORRYVILLE
YEAR-2  ,VFPR Second Year Registration,CLOSE-V ,Case Closed - Building Vacant,CLOS,2755 REDFIELD PL                     ,http://cagismaps.hamilton-co.org/PropertyActivity/CagisReport?APD=VFP1700480,12/08/2017 12:00:00 AM +0000,39.10596532,-84.39059753,MT. WASHINGTON
YEAR-2  ,VFPR Second Year Registration,CLOSE-V ,Case Closed - Building Vacant,CLOS,4917 OAKLAWN DR                      ,http://cagismaps.hamilton-co.org/PropertyActivity/CagisReport?APD=VFP1700011,12/08/2017 12:00:00 AM +0000,39.16024238,-84.41303558,MADISONVILLE
YEAR-2  ,VFPR Second Year Registration,CLOSE-O ,Case Closed - Building Occupied,CLOS,6228 DESMOND ST                      ,http://cagismaps.hamilton-co.org/PropertyActivity/CagisReport?APD=VFP1700009,12/08/2017 12:00:00 AM +0000,39.16242125,-84.3881687,MADISONVILLE
YEAR-2  ,VFPR Second Year Registration,CLOSE-V ,Case Closed - Building Vacant,CLOS,228 CONGRESS AV                     ,http://cagismaps.hamilton-co.org/PropertyActivity/CagisReport?APD=VFP1600575,12/08/2017 12:00:00 AM +0000,39.11317033,-84.43838092,EAST END
YEAR-2  ,VFPR Second Year Registration,CLOSE-V ,Case Closed - Building Vacant,CLOS,4622 GLENWAY AV                      ,http://cagismaps.hamilton-co.org/PropertyActivity/CagisReport?APD=VFP1700302,12/07/2017 12:00:00 AM +0000,39.11432482,-84.59153802,WEST PRICE HILL
YEAR-2  ,VFPR Second Year Registration,CLOSE-V ,Case Closed - Building Vacant,CLOS,1445 NORTH BEND RD                   ,http://cagismaps.hamilton-co.org/PropertyActivity/CagisReport?APD=VFP1700589,12/05/2017 12:00:00 AM +0000,39.20252746,-84.54361781,COLLEGE HILL
YEAR-2  ,VFPR Second Year Registration,CLOSE-V ,Case Closed - Building Vacant,CLOS,3129 HARVARD AV                      ,http://cagismaps.hamilton-co.org/PropertyActivity/CagisReport?APD=VFP1700311,12/04/2017 12:00:00 AM +0000,39.13578839,-84.47726871,EVANSTON
YEAR-2  ,VFPR Second Year Registration,CLOSE-V ,Case Closed - Building Vacant,CLOS,3610 EVANSTON AV                     ,http://cagismaps.hamilton-co.org/PropertyActivity/CagisReport?APD=VFP1700312,12/04/2017 12:00:00 AM +0000,39.14461933,-84.46246828,EVANSTON
YEAR-2  ,VFPR Second Year Registration,CLOSE-O ,Case Closed - Building Occupied,CLOS,8147 ANTHONY WAYNE AV                ,http://cagismaps.hamilton-co.org/PropertyActivity/CagisReport?APD=VFP1700125,12/04/2017 12:00:00 AM +0000,39.20689149,-84.46668609,HARTWELL
YEAR-2  ,VFPR Second Year Registration,REGISTRD,Vacant - Registered Vacant,OPEN,1121 GILSEY AV                       ,http://cagismaps.hamilton-co.org/PropertyActivity/CagisReport?APD=VFP1700622,01/05/2018 12:00:00 AM +0000,39.11299336,-84.58189903,WEST PRICE HILL
YEAR-2  ,VFPR Second Year Registration,CLOSE-O ,Case Closed - Building Occupied,CLOS,2214 AUBURN AV                       ,http://cagismaps.hamilton-co.org/PropertyActivity/CagisReport?APD=VFP1700631,01/04/2018 12:00:00 AM +0000,39.12255566,-84.50799687,MT. AUBURN
YEAR-2  ,VFPR Second Year Registration,REGISTRD,Vacant - Registered Vacant,OPEN,1050 ROXIE LN                        ,http://cagismaps.hamilton-co.org/PropertyActivity/CagisReport?APD=VFP1700702,12/28/2017 12:00:00 AM +0000,39.20638186,-84.52993139,COLLEGE HILL
YEAR-2  ,VFPR Second Year Registration,CLOSE-O ,Case Closed - Building Occupied,CLOS,19 68TH ST                         ,http://cagismaps.hamilton-co.org/PropertyActivity/CagisReport?APD=VFP1700633,12/28/2017 12:00:00 AM +0000,39.19206312,-84.48385334,CARTHAGE
YEAR-2  ,VFPR Second Year Registration,CLOSE-V ,Case Closed - Building Vacant,CLOS,2324 NORTH BEND RD                   ,http://cagismaps.hamilton-co.org/PropertyActivity/CagisReport?APD=VFP1700128,12/27/2017 12:00:00 AM +0000,39.19804941,-84.56603426,MT. AIRY
YEAR-2  ,VFPR Second Year Registration,CLOSE-V ,Case Closed - Building Vacant,CLOS,3426 TRIMBLE AV                      ,http://cagismaps.hamilton-co.org/PropertyActivity/CagisReport?APD=VFP1700046,12/04/2017 12:00:00 AM +0000,39.13926674,-84.46652248,EVANSTON
YEAR-2  ,VFPR Second Year Registration,CLOSE-V ,Case Closed - Building Vacant,CLOS,3864 READING RD                      ,http://cagismaps.hamilton-co.org/PropertyActivity/CagisReport?APD=VFP1700002,12/04/2017 12:00:00 AM +0000,39.15427414,-84.48175335,NORTH AVONDALE - PADDOCK HILLS
YEAR-2  ,VFPR Second Year Registration,CLOSE-V ,Case Closed - Building Vacant,CLOS,407 ELBERON AV                      ,http://cagismaps.hamilton-co.org/propertyactivity/cagisreport?APD=VFP1500411,12/04/2017 12:00:00 AM +0000,39.09787315,-84.56678597,EAST PRICE HILL
YEAR-2  ,VFPR Second Year Registration,RENEWAL ,Renewal of Previous Year Registration,,2735 WAGNER ST                       ,http://cagismaps.hamilton-co.org/PropertyActivity/CagisReport?APD=VFP1600676,11/30/2017 12:00:00 AM +0000,39.13133202,-84.52698552,CUF
YEAR-2  ,VFPR Second Year Registration,REGISTRD,Vacant - Registered Vacant,OPEN,505 MCMICKEN AV                     ,http://cagismaps.hamilton-co.org/PropertyActivity/CagisReport?APD=VFP1700688,11/29/2017 12:00:00 AM +0000,39.12162347,-84.52888104,WEST END
YEAR-2  ,VFPR Second Year Registration,CLOSE-V ,Case Closed - Building Vacant,CLOS,3230 BUELL ST                        ,http://cagismaps.hamilton-co.org/PropertyActivity/CagisReport?APD=VFP1600391,11/29/2017 12:00:00 AM +0000,39.14480792,-84.61555679,WESTWOOD
YEAR-2  ,VFPR Second Year Registration,CLOSE-V ,Case Closed - Building Vacant,CLOS,2516 HALSTEAD ST                     ,http://cagismaps.hamilton-co.org/PropertyActivity/CagisReport?APD=VFP1600385,11/29/2017 12:00:00 AM +0000,39.12761743,-84.53224852,CUF
YEAR-2  ,VFPR Second Year Registration,VACANT  ,Vacant - Not Registered,OPEN,4338 8TH ST                          ,http://cagismaps.hamilton-co.org/PropertyActivity/CagisReport?APD=VFP1700698,11/28/2017 12:00:00 AM +0000,39.10882094,-84.59367273,WEST PRICE HILL
YEAR-2  ,VFPR Second Year Registration,VOID    ,Case Voided,CLOS,3864 READING RD                      ,http://cagismaps.hamilton-co.org/PropertyActivity/CagisReport?APD=VFP1700695,11/28/2017 12:00:00 AM +0000,39.15427414,-84.48175335,NORTH AVONDALE - PADDOCK HILLS
YEAR-2  ,VFPR Second Year Registration,VACANT  ,Vacant - Not Registered,OPEN,3320 WERK RD                         ,http://cagismaps.hamilton-co.org/PropertyActivity/CagisReport?APD=VFP1700693,11/28/2017 12:00:00 AM +0000,39.14133556,-84.61590726,WESTWOOD
YEAR-2  ,VFPR Second Year Registration,VOID    ,Case Voided,CLOS,6228 DESMOND ST                      ,http://cagismaps.hamilton-co.org/PropertyActivity/CagisReport?APD=VFP1700696,11/28/2017 12:00:00 AM +0000,39.16242125,-84.3881687,MADISONVILLE
YEAR-2  ,VFPR Second Year Registration,VOID    ,Case Voided,CLOS,4539 CARNATION AV                    ,http://cagismaps.hamilton-co.org/PropertyActivity/CagisReport?APD=VFP1700690,11/28/2017 12:00:00 AM +0000,39.10737585,-84.60037663,WEST PRICE HILL
YEAR-2  ,VFPR Second Year Registration,REGISTRD,Vacant - Registered Vacant,OPEN,4913 JAMESON ST                      ,http://cagismaps.hamilton-co.org/PropertyActivity/CagisReport?APD=VFP1700615,11/28/2017 12:00:00 AM +0000,39.15872809,-84.38357555,MADISONVILLE
YEAR-2  ,VFPR Second Year Registration,REGISTRD,Vacant - Registered Vacant,OPEN,1750 TUXWORTH AV                     ,http://cagismaps.hamilton-co.org/PropertyActivity/CagisReport?APD=VFP1700612,11/28/2017 12:00:00 AM +0000,39.12192921,-84.59399247,WEST PRICE HILL
YEAR-2  ,VFPR Second Year Registration,REGISTRD,Vacant - Registered Vacant,OPEN,4902 PADDOCK RD                      ,http://cagismaps.hamilton-co.org/PropertyActivity/CagisReport?APD=VFP1700595,11/28/2017 12:00:00 AM +0000,39.17556884,-84.47758003,BOND HILL
YEAR-2  ,VFPR Second Year Registration,REGISTRD,Vacant - Registered Vacant,OPEN,2329 KENTON ST                       ,http://cagismaps.hamilton-co.org/PropertyActivity/CagisReport?APD=VFP1700587,11/28/2017 12:00:00 AM +0000,39.12362929,-84.49464726,WALNUT HILLS
YEAR-2  ,VFPR Second Year Registration,REGISTRD,Vacant - Registered Vacant,OPEN,2410 MONTANA AV                      ,http://cagismaps.hamilton-co.org/PropertyActivity/CagisReport?APD=VFP1700580,11/28/2017 12:00:00 AM +0000,39.15737901,-84.57477584,WESTWOOD
YEAR-2  ,VFPR Second Year Registration,REGISTRD,Vacant - Registered Vacant,OPEN,3859 ZINSLE AV                       ,http://cagismaps.hamilton-co.org/PropertyActivity/CagisReport?APD=VFP1700575,11/28/2017 12:00:00 AM +0000,39.18529685,-84.40550626,KENNEDY HEIGHTS
YEAR-2  ,VFPR Second Year Registration,REGISTRD,Vacant - Registered Vacant,OPEN,206 69TH ST                         ,http://cagismaps.hamilton-co.org/PropertyActivity/CagisReport?APD=VFP1700574,11/28/2017 12:00:00 AM +0000,39.19421328,-84.48450698,CARTHAGE
YEAR-2  ,VFPR Second Year Registration,RENEWAL ,Renewal of Previous Year Registration,,1437 AMBROSE AV                      ,http://cagismaps.hamilton-co.org/PropertyActivity/CagisReport?APD=VFP1700111,11/28/2017 12:00:00 AM +0000,39.20054318,-84.54354243,COLLEGE HILL
YEAR-2  ,VFPR Second Year Registration,VOID    ,Case Voided,CLOS,2546 NORTH BEND RD                   ,http://cagismaps.hamilton-co.org/PropertyActivity/CagisReport?APD=VFP1700686,11/22/2017 12:00:00 AM +0000,39.19205671,-84.56897083,MT. AIRY
YEAR-2  ,VFPR Second Year Registration,CLOSE-V ,Case Closed - Building Vacant,CLOS,1213 BEECH AV                        ,http://cagismaps.hamilton-co.org/PropertyActivity/CagisReport?APD=VFP1600628,11/22/2017 12:00:00 AM +0000,39.11453677,-84.57746396,WEST PRICE HILL
YEAR-2  ,VFPR Second Year Registration,CLOSE-V ,Case Closed - Building Vacant,CLOS,3112 WESTBROOK DR                    ,http://cagismaps.hamilton-co.org/PropertyActivity/CagisReport?APD=VFP1600617,11/22/2017 12:00:00 AM +0000,39.13948325,-84.6052645,WESTWOOD
YEAR-2  ,VFPR Second Year Registration,CLOSE-V ,Case Closed - Building Vacant,CLOS,2828 QUEEN CITY AV                   ,http://cagismaps.hamilton-co.org/PropertyActivity/CagisReport?APD=VFP1600502,11/22/2017 12:00:00 AM +0000,39.13477737,-84.59700227,WESTWOOD
YEAR-2  ,VFPR Second Year Registration,VOID    ,Case Voided,CLOS,2431 NORTH BEND RD                   ,http://cagismaps.hamilton-co.org/PropertyActivity/CagisReport?APD=VFP1700685,11/16/2017 12:00:00 AM +0000,39.19401539,-84.5663215,COLLEGE HILL
YEAR-2  ,VFPR Second Year Registration,VOID    ,Case Voided,CLOS,4790 GUERLEY RD                      ,http://cagismaps.hamilton-co.org/PropertyActivity/CagisReport?APD=VFP1700634,11/16/2017 12:00:00 AM +0000,39.1186195,-84.5961362,WEST PRICE HILL
YEAR-2  ,VFPR Second Year Registration,VOID    ,Case Voided,CLOS,4066 RIVER RD                        ,http://cagismaps.hamilton-co.org/PropertyActivity/CagisReport?APD=VFP1700629,11/16/2017 12:00:00 AM +0000,39.07678168,-84.61075631,RIVERSIDE
YEAR-2  ,VFPR Second Year Registration,VOID    ,Case Voided,CLOS,4651 JOANA PL                        ,http://cagismaps.hamilton-co.org/PropertyActivity/CagisReport?APD=VFP1700626,11/16/2017 12:00:00 AM +0000,39.11647188,-84.59294156,WEST PRICE HILL
YEAR-2  ,VFPR Second Year Registration,VOID    ,Case Voided,CLOS,3068 HEGRY CIR                       ,http://cagismaps.hamilton-co.org/PropertyActivity/CagisReport?APD=VFP1700616,11/15/2017 12:00:00 AM +0000,39.13112078,-84.6037341,WESTWOOD
YEAR-2  ,VFPR Second Year Registration,RENEWAL ,Renewal of Previous Year Registration,,5743 COLERAIN AV                     ,http://cagismaps.hamilton-co.org/PropertyActivity/CagisReport?APD=VFP1600806,11/15/2017 12:00:00 AM +0000,39.19859548,-84.5786686,MT. AIRY
YEAR-2  ,VFPR Second Year Registration,RENEWAL ,Renewal of Previous Year Registration,,1409 BEECH AV                        ,http://cagismaps.hamilton-co.org/PropertyActivity/CagisReport?APD=VFP1600500,11/15/2017 12:00:00 AM +0000,39.11908987,-84.57702731,EAST PRICE HILL
YEAR-2  ,VFPR Second Year Registration,CLOSE-V ,Case Closed - Building Vacant,CLOS,1207 RYLAND AV                       ,http://cagismaps.hamilton-co.org/PropertyActivity/CagisReport?APD=VFP1700467,11/14/2017 12:00:00 AM +0000,39.17831428,-84.47682457,BOND HILL
YEAR-2  ,VFPR Second Year Registration,REGISTRD,Vacant - Registered Vacant,OPEN,1416 ANTOINETTE AV                   ,http://cagismaps.hamilton-co.org/PropertyActivity/CagisReport?APD=VFP1700466,11/14/2017 12:00:00 AM +0000,39.07824682,-84.37592841,MT. WASHINGTON
YEAR-2  ,VFPR Second Year Registration,CLOSE-O ,Case Closed - Building Occupied,CLOS,2721 LAWNDALE AV                     ,http://cagismaps.hamilton-co.org/PropertyActivity/CagisReport?APD=VFP1700396,11/06/2017 12:00:00 AM +0000,39.17633297,-84.43833078,PLEASANT RIDGE
YEAR-2  ,VFPR Second Year Registration,CLOSE-V ,Case Closed - Building Vacant,CLOS,2220 MCGREGOR PL                     ,http://cagismaps.hamilton-co.org/PropertyActivity/CagisReport?APD=VFP1700581,11/01/2017 12:00:00 AM +0000,39.12151907,-84.50155762,MT. AUBURN
YEAR-2  ,VFPR Second Year Registration,CLOSE-V ,Case Closed - Building Vacant,CLOS,5735 ARGUS RD                        ,http://cagismaps.hamilton-co.org/PropertyActivity/CagisReport?APD=VFP1600491,11/01/2017 12:00:00 AM +0000,39.19459712,-84.53590135,COLLEGE HILL
YEAR-2  ,VFPR Second Year Registration,CIVIL-NR,Vacant - Not Registered - Civil Fine Pending,OPEN,2223 SYMMES ST                       ,http://cagismaps.hamilton-co.org/PropertyActivity/CagisReport?APD=VFP1700597,10/31/2017 12:00:00 AM +0000,39.12214654,-84.49861743,WALNUT HILLS
YEAR-2  ,VFPR Second Year Registration,CLOSE-O ,Case Closed - Building Occupied,CLOS,874 CLEVELAND AV                    ,http://cagismaps.hamilton-co.org/PropertyActivity/CagisReport?APD=VFP1700020,10/30/2017 12:00:00 AM +0000,39.14244239,-84.48884706,AVONDALE
YEAR-2  ,VFPR Second Year Registration,CLOSE-V ,Case Closed - Building Vacant,CLOS,6928 BRITTON AV                      ,http://cagismaps.hamilton-co.org/PropertyActivity/CagisReport?APD=VFP1700050,10/26/2017 12:00:00 AM +0000,39.15222201,-84.37613541,MADISONVILLE
YEAR-2  ,VFPR Second Year Registration,CLOSE-V ,Case Closed - Building Vacant,CLOS,4094 RIVER RD                        ,http://cagismaps.hamilton-co.org/PropertyActivity/CagisReport?APD=VFP1600571,10/26/2017 12:00:00 AM +0000,39.07681602,-84.61203638,RIVERSIDE
YEAR-2  ,VFPR Second Year Registration,REGISTRD,Vacant - Registered Vacant,OPEN,1425 CAROLINA AV                     ,http://cagismaps.hamilton-co.org/PropertyActivity/CagisReport?APD=VFP1700614,10/25/2017 12:00:00 AM +0000,39.17513345,-84.47266693,BOND HILL
YEAR-2  ,VFPR Second Year Registration,RENEWAL ,Renewal of Previous Year Registration,,1079 GRAND AV                        ,http://cagismaps.hamilton-co.org/PropertyActivity/CagisReport?APD=VFP1700588,10/24/2017 12:00:00 AM +0000,39.11264094,-84.56074401,EAST PRICE HILL
YEAR-2  ,VFPR Second Year Registration,CLOSE-V ,Case Closed - Building Vacant,CLOS,3096 GILBERT AV                      ,http://cagismaps.hamilton-co.org/PropertyActivity/CagisReport?APD=VFP1700482,10/24/2017 12:00:00 AM +0000,39.1369423,-84.48286937,WALNUT HILLS
YEAR-2  ,VFPR Second Year Registration,CLOSE-O ,Case Closed - Building Occupied,CLOS,1767 FAIRMOUNT AV                    ,http://cagismaps.hamilton-co.org/PropertyActivity/CagisReport?APD=VFP1700119,10/24/2017 12:00:00 AM +0000,39.12980057,-84.55298872,NORTH FAIRMOUNT
YEAR-2  ,VFPR Second Year Registration,CLOSE-V ,Case Closed - Building Vacant,CLOS,1039 FISK AV                         ,http://cagismaps.hamilton-co.org/PropertyActivity/CagisReport?APD=VFP1600678,10/19/2017 12:00:00 AM +0000,39.11205874,-84.58667981,WEST PRICE HILL
YEAR-2  ,VFPR Second Year Registration,CIVIL-NM,Vacant - Not Maintained - Civil Fine Pending,OPEN,1617 GLEN PARKER AV                  ,http://cagismaps.hamilton-co.org/PropertyActivity/CagisReport?APD=VFP1700404,10/18/2017 12:00:00 AM +0000,39.17040948,-84.54156188,NORTHSIDE
YEAR-2  ,VFPR Second Year Registration,CLOSE-V ,Case Closed - Building Vacant,CLOS,5746 WINTROP AV                      ,http://cagismaps.hamilton-co.org/PropertyActivity/CagisReport?APD=VFP1700012,10/18/2017 12:00:00 AM +0000,39.19603342,-84.54978541,COLLEGE HILL
YEAR-2  ,VFPR Second Year Registration,CLOSE-V ,Case Closed - Building Vacant,CLOS,5661 LITTLE FLOWER AV                ,http://cagismaps.hamilton-co.org/PropertyActivity/CagisReport?APD=VFP1600565,10/18/2017 12:00:00 AM +0000,39.19815469,-84.5721435,MT. AIRY
YEAR-2  ,VFPR Second Year Registration,CLOSE-V ,Case Closed - Building Vacant,CLOS,6609 BUCKINGHAM PL                   ,http://cagismaps.hamilton-co.org/PropertyActivity/CagisReport?APD=VFP1700309,10/16/2017 12:00:00 AM +0000,39.15562968,-84.38310806,MADISONVILLE
YEAR-2  ,VFPR Second Year Registration,CLOSE-O ,Case Closed - Building Occupied,CLOS,1702 STONYBROOK DR                   ,http://cagismaps.hamilton-co.org/PropertyActivity/CagisReport?APD=VFP1700132,10/16/2017 12:00:00 AM +0000,39.19850978,-84.456943,ROSELAWN
YEAR-2  ,VFPR Second Year Registration,RENEWAL ,Renewal of Previous Year Registration,,2223 SYMMES ST                       ,http://cagismaps.hamilton-co.org/PropertyActivity/CagisReport?APD=VFP1700401,10/13/2017 12:00:00 AM +0000,39.12214654,-84.49861743,WALNUT HILLS
YEAR-2  ,VFPR Second Year Registration,CLOSE-V ,Case Closed - Building Vacant,CLOS,2537 TALBOTT AV                      ,http://cagismaps.hamilton-co.org/PropertyActivity/CagisReport?APD=VFP1700590,10/11/2017 12:00:00 AM +0000,39.13243942,-84.57122951,SOUTH FAIRMOUNT
YEAR-2  ,VFPR Second Year Registration,CLOSE-V ,Case Closed - Building Vacant,CLOS,1767 MONTEREY CT                     ,http://cagismaps.hamilton-co.org/PropertyActivity/CagisReport?APD=VFP1700307,10/11/2017 12:00:00 AM +0000,39.17669002,-84.54983512,COLLEGE HILL
YEAR-2  ,VFPR Second Year Registration,CLOSE-O ,Case Closed - Building Occupied,CLOS,1176 ATWOOD AV                       ,http://cagismaps.hamilton-co.org/PropertyActivity/CagisReport?APD=VFP1700135,10/11/2017 12:00:00 AM +0000,39.19921654,-84.53902479,COLLEGE HILL
YEAR-2  ,VFPR Second Year Registration,CLOSE-V ,Case Closed - Building Vacant,CLOS,1316 ELAM ST                         ,http://cagismaps.hamilton-co.org/PropertyActivity/CagisReport?APD=VFP1700055,10/11/2017 12:00:00 AM +0000,39.13821131,-84.53843697,CAMP WASHINGTON
YEAR-2  ,VFPR Second Year Registration,CLOSE-V ,Case Closed - Building Vacant,CLOS,3033 WOODBURN AV                     ,http://cagismaps.hamilton-co.org/PropertyActivity/CagisReport?APD=VFP1700045,10/09/2017 12:00:00 AM +0000,39.13308565,-84.47664615,EVANSTON
YEAR-2  ,VFPR Second Year Registration,REGISTRD,Vacant - Registered Vacant,OPEN,3437 MCFADDEN AV                     ,http://cagismaps.hamilton-co.org/PropertyActivity/CagisReport?APD=VFP1700593,10/05/2017 12:00:00 AM +0000,39.15013852,-84.6077246,WESTWOOD
YEAR-2  ,VFPR Second Year Registration,REGISTRD,Vacant - Registered Vacant,OPEN,6101 CLEPHANE AV                     ,http://cagismaps.hamilton-co.org/PropertyActivity/CagisReport?APD=VFP1700592,10/05/2017 12:00:00 AM +0000,39.15605297,-84.391017,MADISONVILLE
YEAR-2  ,VFPR Second Year Registration,CLOSE-O ,Case Closed - Building Occupied,CLOS,1415 LAKELAND AV                     ,http://cagismaps.hamilton-co.org/PropertyActivity/CagisReport?APD=VFP1700391,10/03/2017 12:00:00 AM +0000,39.19437396,-84.46587334,ROSELAWN
YEAR-2  ,VFPR Second Year Registration,CLOSE-V ,Case Closed - Building Vacant,CLOS,4129 FRANCIS AV                      ,http://cagismaps.hamilton-co.org/PropertyActivity/CagisReport?APD=VFP1700017,10/02/2017 12:00:00 AM +0000,39.10345998,-84.58910713,WEST PRICE HILL
YEAR-2  ,VFPR Second Year Registration,CLOSE-V ,Case Closed - Building Vacant,CLOS,1011 FISK AV                         ,http://cagismaps.hamilton-co.org/PropertyActivity/CagisReport?APD=VFP1600770,10/02/2017 12:00:00 AM +0000,39.11099091,-84.58680324,WEST PRICE HILL
YEAR-2  ,VFPR Second Year Registration,CLOSE-V ,Case Closed - Building Vacant,CLOS,520 DELRIDGE DR                     ,http://cagismaps.hamilton-co.org/PropertyActivity/CagisReport?APD=VFP1600761,10/02/2017 12:00:00 AM +0000,39.10087421,-84.59542063,WEST PRICE HILL
YEAR-2  ,VFPR Second Year Registration,CLOSE-V ,Case Closed - Building Vacant,CLOS,4684 LORETTA AV                      ,http://cagismaps.hamilton-co.org/PropertyActivity/CagisReport?APD=VFP1600687,10/02/2017 12:00:00 AM +0000,39.1143992,-84.59547809,WEST PRICE HILL
YEAR-2  ,VFPR Second Year Registration,CLOSE-V ,Case Closed - Building Vacant,CLOS,4615 RAPID RUN RD                    ,http://cagismaps.hamilton-co.org/PropertyActivity/CagisReport?APD=VFP1600328,10/02/2017 12:00:00 AM +0000,39.11311568,-84.59203439,WEST PRICE HILL
YEAR-2  ,VFPR Second Year Registration,VOID    ,Case Voided,CLOS,7887 KNOLLWOOD LN                    ,http://cagismaps.hamilton-co.org/PropertyActivity/CagisReport?APD=VFP1700583,09/28/2017 12:00:00 AM +0000,39.21410739,-84.53478647,COLLEGE HILL
YEAR-2  ,VFPR Second Year Registration,CLOSE-V ,Case Closed - Building Vacant,CLOS,2022 TERALTA CIR                     ,http://cagismaps.hamilton-co.org/PropertyActivity/CagisReport?APD=VFP1600755,09/28/2017 12:00:00 AM +0000,39.13654248,-84.56753827,NORTH FAIRMOUNT
YEAR-2  ,VFPR Second Year Registration,CLOSE-V ,Case Closed - Building Vacant,CLOS,2227 READING RD                      ,http://cagismaps.hamilton-co.org/PropertyActivity/CagisReport?APD=VFP1600753,09/28/2017 12:00:00 AM +0000,39.1220971,-84.50148241,MT. AUBURN
YEAR-2  ,VFPR Second Year Registration,RENEWAL ,Renewal of Previous Year Registration,,1283 BRUSHWOOD AV                    ,http://cagismaps.hamilton-co.org/PropertyActivity/CagisReport?APD=VFP1600752,09/28/2017 12:00:00 AM +0000,39.21415298,-84.53688481,COLLEGE HILL
YEAR-2  ,VFPR Second Year Registration,RENEWAL ,Renewal of Previous Year Registration,,2450 MCMICKEN AV                     ,http://cagismaps.hamilton-co.org/PropertyActivity/CagisReport?APD=VFP1600696,09/28/2017 12:00:00 AM +0000,39.12704669,-84.53128002,CUF
YEAR-2  ,VFPR Second Year Registration,CLOSE-V ,Case Closed - Building Vacant,CLOS,8040 KNOLLWOOD LN                    ,http://cagismaps.hamilton-co.org/PropertyActivity/CagisReport?APD=VFP1600801,09/27/2017 12:00:00 AM +0000,39.21517191,-84.53343693,COLLEGE HILL
YEAR-2  ,VFPR Second Year Registration,REGISTRD,Vacant - Registered Vacant,OPEN,2227 MCBREEN AV                      ,http://cagismaps.hamilton-co.org/PropertyActivity/CagisReport?APD=VFP1700477,09/26/2017 12:00:00 AM +0000,39.14039151,-84.57376669,WESTWOOD
YEAR-2  ,VFPR Second Year Registration,RENEWAL ,Renewal of Previous Year Registration,,7201 SCOTTWOOD AV                    ,http://cagismaps.hamilton-co.org/PropertyActivity/CagisReport?APD=VFP1600756,09/26/2017 12:00:00 AM +0000,39.19335895,-84.46240041,ROSELAWN
YEAR-2  ,VFPR Second Year Registration,RENEWAL ,Renewal of Previous Year Registration,,450 CONSIDINE AV                    ,http://cagismaps.hamilton-co.org/PropertyActivity/CagisReport?APD=VFP1600690,09/26/2017 12:00:00 AM +0000,39.09942196,-84.56386728,EAST PRICE HILL
YEAR-2  ,VFPR Second Year Registration,CLOSE-V ,Case Closed - Building Vacant,CLOS,1881 ASHBROOK DR                     ,http://cagismaps.hamilton-co.org/PropertyActivity/CagisReport?APD=VFP1600513,09/25/2017 12:00:00 AM +0000,39.12403512,-84.59508825,WEST PRICE HILL
YEAR-2  ,VFPR Second Year Registration,CLOSE-V ,Case Closed - Building Vacant,CLOS,2946 HOADLY CT                       ,http://cagismaps.hamilton-co.org/PropertyActivity/CagisReport?APD=VFP1700005,09/21/2017 12:00:00 AM +0000,39.14136901,-84.58510925,WESTWOOD
YEAR-2  ,VFPR Second Year Registration,REGISTRD,Vacant - Registered Vacant,OPEN,1316 LAIDLAW AV                      ,http://cagismaps.hamilton-co.org/PropertyActivity/CagisReport?APD=VFP1700473,09/19/2017 12:00:00 AM +0000,39.17789805,-84.47481928,BOND HILL
YEAR-2  ,VFPR Second Year Registration,REGISTRD,Vacant - Registered Vacant,OPEN,133 73RD ST                         ,http://cagismaps.hamilton-co.org/PropertyActivity/CagisReport?APD=VFP1700472,09/19/2017 12:00:00 AM +0000,39.19710715,-84.48069223,CARTHAGE
YEAR-2  ,VFPR Second Year Registration,REGISTRD,Vacant - Registered Vacant,OPEN,3055 CLEINVIEW AV                    ,http://cagismaps.hamilton-co.org/PropertyActivity/CagisReport?APD=VFP1700470,09/19/2017 12:00:00 AM +0000,39.13348412,-84.47356837,EVANSTON
YEAR-2  ,VFPR Second Year Registration,RENEWAL ,Renewal of Previous Year Registration,,1108 ARCHLAND DR                     ,http://cagismaps.hamilton-co.org/PropertyActivity/CagisReport?APD=VFP1600624,09/19/2017 12:00:00 AM +0000,39.21036684,-84.53008539,COLLEGE HILL
YEAR-2  ,VFPR Second Year Registration,CLOSE-V ,Case Closed - Building Vacant,CLOS,3032 MCHENRY AV                      ,http://cagismaps.hamilton-co.org/PropertyActivity/CagisReport?APD=VFP1600401,09/18/2017 12:00:00 AM +0000,39.14166818,-84.57976806,WESTWOOD
YEAR-2  ,VFPR Second Year Registration,CLOSE-V ,Case Closed - Building Vacant,CLOS,1186 WEST WY                         ,http://cagismaps.hamilton-co.org/PropertyActivity/CagisReport?APD=VFP1600207,09/14/2017 12:00:00 AM +0000,39.19593984,-84.53904263,COLLEGE HILL
YEAR-2  ,VFPR Second Year Registration,CLOSE-O ,Case Closed - Building Occupied,CLOS,3341 NINANN CT                       ,http://cagismaps.hamilton-co.org/PropertyActivity/CagisReport?APD=VFP1700385,09/12/2017 12:00:00 AM +0000,39.14429277,-84.56799897,EAST WESTWOOD
YEAR-2  ,VFPR Second Year Registration,RENEWAL ,Renewal of Previous Year Registration,,805 RIDGEWAY AV                     ,http://cagismaps.hamilton-co.org/PropertyActivity/CagisReport?APD=VFP1600578,09/12/2017 12:00:00 AM +0000,39.13944163,-84.49087105,AVONDALE
YEAR-2  ,VFPR Second Year Registration,CLOSE-V ,Case Closed - Building Vacant,CLOS,2719 NORTH BEND RD                   ,http://cagismaps.hamilton-co.org/PropertyActivity/CagisReport?APD=VFP1700023,09/11/2017 12:00:00 AM +0000,39.18881329,-84.57465951,MT. AIRY
YEAR-2  ,VFPR Second Year Registration,RENEWAL ,Renewal of Previous Year Registration,,2324 NORTH BEND RD                   ,http://cagismaps.hamilton-co.org/PropertyActivity/CagisReport?APD=VFP1600338,09/08/2017 12:00:00 AM +0000,39.19804941,-84.56603426,MT. AIRY
YEAR-2  ,VFPR Second Year Registration,RENEWAL ,Renewal of Previous Year Registration,,530 CLINTON SPRINGS AV              ,http://cagismaps.hamilton-co.org/propertyactivity/cagisreport?APD=VFP1500822,09/08/2017 12:00:00 AM +0000,39.15656945,-84.49428391,NORTH AVONDALE - PADDOCK HILLS
YEAR-2  ,VFPR Second Year Registration,RENEWAL ,Renewal of Previous Year Registration,,742 CONSIDINE AV                    ,http://cagismaps.hamilton-co.org/propertyactivity/cagisreport?APD=VFP1500665,09/08/2017 12:00:00 AM +0000,39.10533465,-84.56326528,EAST PRICE HILL
YEAR-2  ,VFPR Second Year Registration,RENEWAL ,Renewal of Previous Year Registration,,3330 CAVANAUGH AV                    ,http://cagismaps.hamilton-co.org/propertyactivity/cagisreport?APD=VFP1500612,09/08/2017 12:00:00 AM +0000,39.14369749,-84.57272857,EAST WESTWOOD
YEAR-2  ,VFPR Second Year Registration,RENEWAL ,Renewal of Previous Year Registration,,3768 BONFIELD DR                     ,http://cagismaps.hamilton-co.org/propertyactivity/cagisreport?APD=VFP1500486,09/08/2017 12:00:00 AM +0000,39.15214205,-84.5044965,AVONDALE
YEAR-2  ,VFPR Second Year Registration,RENEWAL ,Renewal of Previous Year Registration,,1164 CHEYENNE DR                     ,http://cagismaps.hamilton-co.org/propertyactivity/cagisreport?APD=VFP1500479,09/08/2017 12:00:00 AM +0000,39.18533108,-84.47827472,BOND HILL
YEAR-2  ,VFPR Second Year Registration,RENEWAL ,Renewal of Previous Year Registration,,2917 FISCHER PL                      ,http://cagismaps.hamilton-co.org/propertyactivity/cagisreport?APD=VFP1500412,09/08/2017 12:00:00 AM +0000,39.14543316,-84.59443156,WESTWOOD
YEAR-2  ,VFPR Second Year Registration,RENEWAL ,Renewal of Previous Year Registration,,1528 ELKTON PL                       ,http://cagismaps.hamilton-co.org/PropertyActivity/CagisReport?APD=VFP1600558,09/08/2017 12:00:00 AM +0000,39.20178628,-84.54578114,COLLEGE HILL
YEAR-2  ,VFPR Second Year Registration,RENEWAL ,Renewal of Previous Year Registration,,3821 ZINSLE AV                       ,http://cagismaps.hamilton-co.org/propertyactivity/cagisreport?APD=VFP1500670,09/08/2017 12:00:00 AM +0000,39.18538178,-84.40652132,KENNEDY HEIGHTS
YEAR-2  ,VFPR Second Year Registration,RENEWAL ,Renewal of Previous Year Registration,,2754 WERKASTLE LN                    ,http://cagismaps.hamilton-co.org/propertyactivity/cagisreport?APD=VFP1500016,09/08/2017 12:00:00 AM +0000,39.14143417,-84.59246794,WESTWOOD
YEAR-2  ,VFPR Second Year Registration,RENEWAL ,Renewal of Previous Year Registration,,915 WELLS ST                        ,http://cagismaps.hamilton-co.org/PropertyActivity/CagisReport?APD=VFP1600579,09/08/2017 12:00:00 AM +0000,39.10787914,-84.56981188,EAST PRICE HILL
YEAR-2  ,VFPR Second Year Registration,RENEWAL ,Renewal of Previous Year Registration,,6228 DESMOND ST                      ,http://cagismaps.hamilton-co.org/PropertyActivity/CagisReport?APD=VFP1600029,09/08/2017 12:00:00 AM +0000,39.16242125,-84.3881687,MADISONVILLE
YEAR-2  ,VFPR Second Year Registration,RENEWAL ,Renewal of Previous Year Registration,,3610 EVANSTON AV                     ,http://cagismaps.hamilton-co.org/PropertyActivity/CagisReport?APD=VFP1600403,09/08/2017 12:00:00 AM +0000,39.14461933,-84.46246828,EVANSTON
YEAR-2  ,VFPR Second Year Registration,RENEWAL ,Renewal of Previous Year Registration,,1953 CONNECTICUT AV                  ,http://cagismaps.hamilton-co.org/PropertyActivity/CagisReport?APD=VFP1600392,09/08/2017 12:00:00 AM +0000,39.20028826,-84.55734655,COLLEGE HILL
YEAR-2  ,VFPR Second Year Registration,RENEWAL ,Renewal of Previous Year Registration,,6256 STURDY AV                       ,http://cagismaps.hamilton-co.org/PropertyActivity/CagisReport?APD=VFP1600337,09/08/2017 12:00:00 AM +0000,39.09685645,-84.38449884,MT. WASHINGTON
YEAR-2  ,VFPR Second Year Registration,RENEWAL ,Renewal of Previous Year Registration,,2839 MORNINGRIDGE DR                 ,http://cagismaps.hamilton-co.org/PropertyActivity/CagisReport?APD=VFP1600076,09/08/2017 12:00:00 AM +0000,39.13703596,-84.58750925,WESTWOOD
YEAR-2  ,VFPR Second Year Registration,RENEWAL ,Renewal of Previous Year Registration,,2105 BURNET AV                       ,http://cagismaps.hamilton-co.org/propertyactivity/cagisreport?APD=VFP1500472,09/08/2017 12:00:00 AM +0000,39.1193246,-84.50299705,MT. AUBURN
YEAR-2  ,VFPR Second Year Registration,CIVIL-NM,Vacant - Not Maintained - Civil Fine Pending,OPEN,605 EAST EPWORTH AV                 ,http://cagismaps.hamilton-co.org/PropertyActivity/CagisReport?APD=VFP1700130,09/08/2017 12:00:00 AM +0000,39.17358378,-84.51425692,SPRING GROVE VILLAGE
YEAR-2  ,VFPR Second Year Registration,RENEWAL ,Renewal of Previous Year Registration,,1806 DALE RD                         ,http://cagismaps.hamilton-co.org/PropertyActivity/CagisReport?APD=VFP1600612,09/08/2017 12:00:00 AM +0000,39.17703663,-84.46246679,BOND HILL
YEAR-2  ,VFPR Second Year Registration,RENEWAL ,Renewal of Previous Year Registration,,3695 ALLVIEW CIR                     ,http://cagismaps.hamilton-co.org/propertyactivity/cagisreport?APD=VFP1500669,09/08/2017 12:00:00 AM +0000,39.13833685,-84.62099759,WESTWOOD
YEAR-2  ,VFPR Second Year Registration,RENEWAL ,Renewal of Previous Year Registration,,1182 CEDAR AV                        ,http://cagismaps.hamilton-co.org/propertyactivity/cagisreport?APD=VFP1500608,09/08/2017 12:00:00 AM +0000,39.19828267,-84.53934358,COLLEGE HILL
YEAR-2  ,VFPR Second Year Registration,RENEWAL ,Renewal of Previous Year Registration,,6405 ASPEN WY                        ,http://cagismaps.hamilton-co.org/PropertyActivity/CagisReport?APD=VFP1700112,09/08/2017 12:00:00 AM +0000,39.20814948,-84.55216171,COLLEGE HILL
YEAR-2  ,VFPR Second Year Registration,RENEWAL ,Renewal of Previous Year Registration,,6527 RIPPLEWOOD LN                   ,http://cagismaps.hamilton-co.org/PropertyActivity/CagisReport?APD=VFP1600568,09/08/2017 12:00:00 AM +0000,39.09304909,-84.37711954,MT. WASHINGTON
YEAR-2  ,VFPR Second Year Registration,RENEWAL ,Renewal of Previous Year Registration,,2415 HOMESTEAD PL                    ,http://cagismaps.hamilton-co.org/PropertyActivity/CagisReport?APD=VFP1600322,09/08/2017 12:00:00 AM +0000,39.13013099,-84.57361572,WESTWOOD
YEAR-2  ,VFPR Second Year Registration,RENEWAL ,Renewal of Previous Year Registration,,2002 QUEEN CITY AV                   ,http://cagismaps.hamilton-co.org/PropertyActivity/CagisReport?APD=VFP1600030,09/08/2017 12:00:00 AM +0000,39.12828158,-84.56644913,SOUTH FAIRMOUNT
YEAR-2  ,VFPR Second Year Registration,RENEWAL ,Renewal of Previous Year Registration,,221 KINSEY AV                       ,http://cagismaps.hamilton-co.org/propertyactivity/cagisreport?APD=VFP1500616,09/08/2017 12:00:00 AM +0000,39.12506895,-84.50400687,MT. AUBURN
YEAR-2  ,VFPR Second Year Registration,RENEWAL ,Renewal of Previous Year Registration,,4763 DALE AV                         ,http://cagismaps.hamilton-co.org/PropertyActivity/CagisReport?APD=VFP1600688,09/08/2017 12:00:00 AM +0000,39.11184081,-84.59829258,WEST PRICE HILL
YEAR-2  ,VFPR Second Year Registration,RENEWAL ,Renewal of Previous Year Registration,,543 NORWAY AV                       ,http://cagismaps.hamilton-co.org/PropertyActivity/CagisReport?APD=VFP1600404,09/08/2017 12:00:00 AM +0000,39.15198042,-84.49507784,AVONDALE
YEAR-2  ,VFPR Second Year Registration,RENEWAL ,Renewal of Previous Year Registration,,5548 DUNNING PL                      ,http://cagismaps.hamilton-co.org/propertyactivity/cagisreport?APD=VFP1500051,09/08/2017 12:00:00 AM +0000,39.1561534,-84.39781329,MADISONVILLE
YEAR-2  ,VFPR Second Year Registration,CLOSE-V ,Case Closed - Building Vacant,CLOS,3312 MILTON CT                       ,http://cagismaps.hamilton-co.org/PropertyActivity/CagisReport?APD=VFP1700013,09/05/2017 12:00:00 AM +0000,39.14009636,-84.49016664,AVONDALE
YEAR-2  ,VFPR Second Year Registration,CLOSE-V ,Case Closed - Building Vacant,CLOS,5704 CHANDLER ST                     ,http://cagismaps.hamilton-co.org/PropertyActivity/CagisReport?APD=VFP1600569,08/31/2017 12:00:00 AM +0000,39.16397633,-84.39536464,MADISONVILLE
YEAR-2  ,VFPR Second Year Registration,VOID    ,Case Voided,CLOS,2234 GRAEBE AV                       ,http://cagismaps.hamilton-co.org/PropertyActivity/CagisReport?APD=VFP1700407,08/30/2017 12:00:00 AM +0000,39.12193752,-84.56289916,EAST PRICE HILL
YEAR-2  ,VFPR Second Year Registration,CLOSE-V ,Case Closed - Building Vacant,CLOS,3320 HOLLOWAY CT                     ,http://cagismaps.hamilton-co.org/PropertyActivity/CagisReport?APD=VFP1600509,08/30/2017 12:00:00 AM +0000,39.1379813,-84.47267546,EVANSTON
YEAR-2  ,VFPR Second Year Registration,CLOSE-V ,Case Closed - Building Vacant,CLOS,1221 AVON DR                         ,http://cagismaps.hamilton-co.org/PropertyActivity/CagisReport?APD=VFP1700394,08/24/2017 12:00:00 AM +0000,39.16585104,-84.47782166,NORTH AVONDALE - PADDOCK HILLS
YEAR-2  ,VFPR Second Year Registration,RENEWAL ,Renewal of Previous Year Registration,,4894 RAPID RUN RD                    ,http://cagismaps.hamilton-co.org/propertyactivity/cagisreport?APD=VFP1500819,09/08/2017 12:00:00 AM +0000,39.11148469,-84.60309038,WEST PRICE HILL
YEAR-2  ,VFPR Second Year Registration,RENEWAL ,Renewal of Previous Year Registration,,6322 SAVANNAH AV                     ,http://cagismaps.hamilton-co.org/propertyactivity/cagisreport?APD=VFP1500814,09/08/2017 12:00:00 AM +0000,39.20737727,-84.55374177,COLLEGE HILL
YEAR-2  ,VFPR Second Year Registration,RENEWAL ,Renewal of Previous Year Registration,,3036 MCHENRY AV                      ,http://cagismaps.hamilton-co.org/propertyactivity/cagisreport?APD=VFP1600003,09/08/2017 12:00:00 AM +0000,39.14179628,-84.57966957,WESTWOOD
YEAR-2  ,VFPR Second Year Registration,RENEWAL ,Renewal of Previous Year Registration,,1232 DROTT AV                        ,http://cagismaps.hamilton-co.org/propertyactivity/cagisreport?APD=VFP1500399,09/08/2017 12:00:00 AM +0000,39.1149781,-84.56845199,EAST PRICE HILL
YEAR-2  ,VFPR Second Year Registration,RENEWAL ,Renewal of Previous Year Registration,,2809 LAFEUILLE AV                    ,http://cagismaps.hamilton-co.org/propertyactivity/cagisreport?APD=VFP1500059,09/08/2017 12:00:00 AM +0000,39.13626349,-84.59105511,WESTWOOD
YEAR-2  ,VFPR Second Year Registration,RENEWAL ,Renewal of Previous Year Registration,,2452 WHITE ST                        ,http://cagismaps.hamilton-co.org/PropertyActivity/CagisReport?APD=VFP1700014,09/08/2017 12:00:00 AM +0000,39.12905624,-84.56289291,SOUTH FAIRMOUNT
YEAR-2  ,VFPR Second Year Registration,RENEWAL ,Renewal of Previous Year Registration,,5723 NAHANT AV                       ,http://cagismaps.hamilton-co.org/propertyactivity/cagisreport?APD=VFP1500678,09/08/2017 12:00:00 AM +0000,39.19533086,-84.55115549,COLLEGE HILL
YEAR-2  ,VFPR Second Year Registration,RENEWAL ,Renewal of Previous Year Registration,,1073 ALBANY TER                      ,http://cagismaps.hamilton-co.org/propertyactivity/cagisreport?APD=VFP1500471,09/08/2017 12:00:00 AM +0000,39.19656929,-84.53416202,COLLEGE HILL
YEAR-2  ,VFPR Second Year Registration,CLOSE-V ,Case Closed - Building Vacant,CLOS,1181 WEST WY                         ,http://cagismaps.hamilton-co.org/PropertyActivity/CagisReport?APD=VFP1700402,08/15/2017 12:00:00 AM +0000,39.19553776,-84.53894978,COLLEGE HILL
YEAR-2  ,VFPR Second Year Registration,CLOSE-V ,Case Closed - Building Vacant,CLOS,2910 BOUDINOT AV                     ,http://cagismaps.hamilton-co.org/PropertyActivity/CagisReport?APD=VFP1700303,08/14/2017 12:00:00 AM +0000,39.13691814,-84.60435543,WESTWOOD
YEAR-2  ,VFPR Second Year Registration,CLOSE-V ,Case Closed - Building Vacant,CLOS,2844 CLAYPOLE AV                     ,http://cagismaps.hamilton-co.org/PropertyActivity/CagisReport?APD=VFP1600769,08/14/2017 12:00:00 AM +0000,39.11412399,-84.55718809,EAST PRICE HILL
YEAR-2  ,VFPR Second Year Registration,CIVIL-NR,Vacant - Not Registered - Civil Fine Pending,OPEN,267 GILMAN AV                       ,http://cagismaps.hamilton-co.org/PropertyActivity/CagisReport?APD=VFP1700392,08/08/2017 12:00:00 AM +0000,39.12159968,-84.50563206,MT. AUBURN
YEAR-2  ,VFPR Second Year Registration,CLOSE-V ,Case Closed - Building Vacant,CLOS,1909 BERKLEY AV                      ,http://cagismaps.hamilton-co.org/PropertyActivity/CagisReport?APD=VFP1700124,08/03/2017 12:00:00 AM +0000,39.17173169,-84.46176474,BOND HILL
YEAR-2  ,VFPR Second Year Registration,CLOSE-V ,Case Closed - Building Vacant,CLOS,6267 GLADE AV                        ,http://cagismaps.hamilton-co.org/PropertyActivity/CagisReport?APD=VFP1600633,08/03/2017 12:00:00 AM +0000,39.08026375,-84.38617211,MT. WASHINGTON
YEAR-2  ,VFPR Second Year Registration,CLOSE-V ,Case Closed - Building Vacant,CLOS,6208 PRENTICE ST                     ,http://cagismaps.hamilton-co.org/PropertyActivity/CagisReport?APD=VFP1700018,08/02/2017 12:00:00 AM +0000,39.15949852,-84.38888739,MADISONVILLE
YEAR-2  ,VFPR Second Year Registration,CLOSE-V ,Case Closed - Building Vacant,CLOS,6018 WAYSIDE CT                      ,http://cagismaps.hamilton-co.org/PropertyActivity/CagisReport?APD=VFP1600217,07/31/2017 12:00:00 AM +0000,39.09206412,-84.3951119,MT. WASHINGTON
YEAR-2  ,VFPR Second Year Registration,CLOSE-V ,Case Closed - Building Vacant,CLOS,2926 CORTELYOU PL                    ,http://cagismaps.hamilton-co.org/PropertyActivity/CagisReport?APD=VFP1700117,07/28/2017 12:00:00 AM +0000,39.18810971,-84.43137195,PLEASANT RIDGE
YEAR-2  ,VFPR Second Year Registration,CLOSE-O ,Case Closed - Building Occupied,CLOS,6419 LISBON AV                       ,http://cagismaps.hamilton-co.org/PropertyActivity/CagisReport?APD=VFP1700064,07/28/2017 12:00:00 AM +0000,39.18788809,-84.43544177,PLEASANT RIDGE
YEAR-2  ,VFPR Second Year Registration,CLOSE-V ,Case Closed - Building Vacant,CLOS,5339 TANNER AV                       ,http://cagismaps.hamilton-co.org/PropertyActivity/CagisReport?APD=VFP1600692,07/28/2017 12:00:00 AM +0000,39.17125865,-84.43153331,PLEASANT RIDGE
YEAR-2  ,VFPR Second Year Registration,REGISTRD,Vacant - Registered Vacant,OPEN,3045 WORTHINGTON AV                  ,http://cagismaps.hamilton-co.org/PropertyActivity/CagisReport?APD=VFP1700387,07/27/2017 12:00:00 AM +0000,39.14276382,-84.58115476,WESTWOOD
YEAR-2  ,VFPR Second Year Registration,CLOSE-O ,Case Closed - Building Occupied,CLOS,2069 TERALTA CIR                     ,http://cagismaps.hamilton-co.org/PropertyActivity/CagisReport?APD=VFP1700294,07/26/2017 12:00:00 AM +0000,39.13758371,-84.56690237,NORTH FAIRMOUNT
YEAR-2  ,VFPR Second Year Registration,REGISTRD,Vacant - Registered Vacant,OPEN,1438 BEAVERTON AV                    ,http://cagismaps.hamilton-co.org/PropertyActivity/CagisReport?APD=VFP1700126,07/25/2017 12:00:00 AM +0000,39.19557897,-84.46477414,ROSELAWN
YEAR-2  ,VFPR Second Year Registration,CLOSE-V ,Case Closed - Building Vacant,CLOS,4706 WINTON RD                       ,http://cagismaps.hamilton-co.org/PropertyActivity/CagisReport?APD=VFP1600610,07/17/2017 12:00:00 AM +0000,39.17545485,-84.51926439,SPRING GROVE VILLAGE
YEAR-2  ,VFPR Second Year Registration,CLOSE-V ,Case Closed - Building Vacant,CLOS,5553 BOSWORTH PL                     ,http://cagismaps.hamilton-co.org/PropertyActivity/CagisReport?APD=VFP1600563,07/07/2017 12:00:00 AM +0000,39.17625683,-84.44271795,PLEASANT RIDGE
YEAR-2  ,VFPR Second Year Registration,REGISTRD,Vacant - Registered Vacant,OPEN,1822 ESMONDE ST                      ,http://cagismaps.hamilton-co.org/PropertyActivity/CagisReport?APD=VFP1700384,07/05/2017 12:00:00 AM +0000,39.12477157,-84.55874068,SOUTH FAIRMOUNT
YEAR-2  ,VFPR Second Year Registration,CLOSE-V ,Case Closed - Building Vacant,CLOS,1831 NORTH BEND RD                   ,http://cagismaps.hamilton-co.org/PropertyActivity/CagisReport?APD=VFP1700113,06/30/2017 12:00:00 AM +0000,39.20313804,-84.55414377,COLLEGE HILL
YEAR-2  ,VFPR Second Year Registration,CLOSE-V ,Case Closed - Building Vacant,CLOS,287 DORCHESTER AV                   ,http://cagismaps.hamilton-co.org/PropertyActivity/CagisReport?APD=VFP1700291,06/29/2017 12:00:00 AM +0000,39.11757682,-84.50512601,MT. AUBURN
YEAR-2  ,VFPR Second Year Registration,CLOSE-O ,Case Closed - Building Occupied,CLOS,1196 LYNNEBROOK DR                   ,http://cagismaps.hamilton-co.org/PropertyActivity/CagisReport?APD=VFP1600698,06/21/2017 12:00:00 AM +0000,39.19737732,-84.53913376,COLLEGE HILL
YEAR-2  ,VFPR Second Year Registration,CLOSE-V ,Case Closed - Building Vacant,CLOS,6069 TAHITI DR                       ,http://cagismaps.hamilton-co.org/PropertyActivity/CagisReport?APD=VFP1600632,06/21/2017 12:00:00 AM +0000,39.19898755,-84.53141191,COLLEGE HILL
YEAR-2  ,VFPR Second Year Registration,REGISTRD,Vacant - Registered Vacant,OPEN,7125 VAN KIRK AV                     ,http://cagismaps.hamilton-co.org/PropertyActivity/CagisReport?APD=VFP1700299,06/16/2017 12:00:00 AM +0000,39.19673321,-84.48264757,CARTHAGE
YEAR-2  ,VFPR Second Year Registration,CLOSE-O ,Case Closed - Building Occupied,CLOS,547 CARPLIN PL                      ,http://cagismaps.hamilton-co.org/PropertyActivity/CagisReport?APD=VFP1700056,06/16/2017 12:00:00 AM +0000,39.13875069,-84.49575686,AVONDALE
YEAR-2  ,VFPR Second Year Registration,CLOSE-V ,Case Closed - Building Vacant,CLOS,6133 SUNRIDGE DR                     ,http://cagismaps.hamilton-co.org/PropertyActivity/CagisReport?APD=VFP1700054,06/15/2017 12:00:00 AM +0000,39.2009582,-84.52928404,COLLEGE HILL
YEAR-2  ,VFPR Second Year Registration,CLOSE-V ,Case Closed - Building Vacant,CLOS,726 CONSIDINE AV                    ,http://cagismaps.hamilton-co.org/PropertyActivity/CagisReport?APD=VFP1600394,06/15/2017 12:00:00 AM +0000,39.10474522,-84.56336079,EAST PRICE HILL
YEAR-2  ,VFPR Second Year Registration,CLOSE-V ,Case Closed - Building Vacant,CLOS,1227 ROSSMORE AV                     ,http://cagismaps.hamilton-co.org/PropertyActivity/CagisReport?APD=VFP1600508,06/07/2017 12:00:00 AM +0000,39.17913487,-84.47621252,BOND HILL
YEAR-2  ,VFPR Second Year Registration,CLOSE-V ,Case Closed - Building Vacant,CLOS,1110 RYLAND AV                       ,http://cagismaps.hamilton-co.org/PropertyActivity/CagisReport?APD=VFP1600077,06/07/2017 12:00:00 AM +0000,39.17890871,-84.4798123,BOND HILL
YEAR-2  ,VFPR Second Year Registration,REGISTRD,Vacant - Registered Vacant,OPEN,1712 GELLENBECK ST                   ,http://cagismaps.hamilton-co.org/PropertyActivity/CagisReport?APD=VFP1700297,06/06/2017 12:00:00 AM +0000,39.12047328,-84.58043871,WEST PRICE HILL
YEAR-2  ,VFPR Second Year Registration,CLOSE-V ,Case Closed - Building Vacant,CLOS,1545 JOSEPH ST                       ,http://cagismaps.hamilton-co.org/PropertyActivity/CagisReport?APD=VFP1600694,06/06/2017 12:00:00 AM +0000,39.17259508,-84.47061284,BOND HILL
YEAR-2  ,VFPR Second Year Registration,REGISTRD,Vacant - Registered Vacant,OPEN,2546 TALBOTT AV                      ,http://cagismaps.hamilton-co.org/PropertyActivity/CagisReport?APD=VFP1700118,06/05/2017 12:00:00 AM +0000,39.13274393,-84.57078712,SOUTH FAIRMOUNT
YEAR-2  ,VFPR Second Year Registration,CLOSE-V ,Case Closed - Building Vacant,CLOS,5320 EBERSOLE AV                     ,http://cagismaps.hamilton-co.org/PropertyActivity/CagisReport?APD=VFP1700001,05/23/2017 12:00:00 AM +0000,39.16456212,-84.39531341,MADISONVILLE
YEAR-2  ,VFPR Second Year Registration,CLOSE-V ,Case Closed - Building Vacant,CLOS,4277 FOLEY RD                        ,http://cagismaps.hamilton-co.org/PropertyActivity/CagisReport?APD=VFP1600808,05/23/2017 12:00:00 AM +0000,39.10325253,-84.59177631,WEST PRICE HILL
YEAR-2  ,VFPR Second Year Registration,REGISTRD,Vacant - Registered Vacant,OPEN,1244 DEWEY AV                        ,http://cagismaps.hamilton-co.org/PropertyActivity/CagisReport?APD=VFP1700133,05/17/2017 12:00:00 AM +0000,39.11597623,-84.58172996,WEST PRICE HILL
YEAR-2  ,VFPR Second Year Registration,CIVIL-NM,Vacant - Not Maintained - Civil Fine Pending,OPEN,745 CIRCLE AV                       ,http://cagismaps.hamilton-co.org/PropertyActivity/CagisReport?APD=VFP1700053,05/17/2017 12:00:00 AM +0000,39.16961783,-84.51869448,SPRING GROVE VILLAGE
YEAR-2  ,VFPR Second Year Registration,REGISTRD,Vacant - Registered Vacant,OPEN,2965 HULL AV                         ,http://cagismaps.hamilton-co.org/PropertyActivity/CagisReport?APD=VFP1700123,05/03/2017 12:00:00 AM +0000,39.1553554,-84.59764792,WESTWOOD
YEAR-2  ,VFPR Second Year Registration,REGISTRD,Vacant - Registered Vacant,OPEN,277 MYSTIC AV                       ,http://cagismaps.hamilton-co.org/PropertyActivity/CagisReport?APD=VFP1700122,05/03/2017 12:00:00 AM +0000,39.20899906,-84.46613088,HARTWELL
YEAR-2  ,VFPR Second Year Registration,CLOSE-V ,Case Closed - Building Vacant,CLOS,4766 HARDWICK DR                     ,http://cagismaps.hamilton-co.org/PropertyActivity/CagisReport?APD=VFP1600572,05/03/2017 12:00:00 AM +0000,39.12536411,-84.59510316,WEST PRICE HILL
YEAR-2  ,VFPR Second Year Registration,REGISTRD,Vacant - Registered Vacant,OPEN,578 ROSEMONT AV                     ,http://cagismaps.hamilton-co.org/PropertyActivity/CagisReport?APD=VFP1700114,05/01/2017 12:00:00 AM +0000,39.10416016,-84.58377718,WEST PRICE HILL
YEAR-2  ,VFPR Second Year Registration,CLOSE-V ,Case Closed - Building Vacant,CLOS,4826 PLAINVILLE RD                   ,http://cagismaps.hamilton-co.org/PropertyActivity/CagisReport?APD=VFP1600164,04/28/2017 12:00:00 AM +0000,39.15735742,-84.38088625,MADISONVILLE
YEAR-2  ,VFPR Second Year Registration,CLOSE-V ,Case Closed - Building Vacant,CLOS,676 DELTA AV                        ,http://cagismaps.hamilton-co.org/PropertyActivity/CagisReport?APD=VFP1700021,04/27/2017 12:00:00 AM +0000,39.12507879,-84.43374486,MT. LOOKOUT
YEAR-2  ,VFPR Second Year Registration,CLOSE-V ,Case Closed - Building Vacant,CLOS,2248 QUEBEC RD                       ,http://cagismaps.hamilton-co.org/PropertyActivity/CagisReport?APD=VFP1600494,04/26/2017 12:00:00 AM +0000,39.12287196,-84.56440388,EAST PRICE HILL
YEAR-2  ,VFPR Second Year Registration,CLOSE-V ,Case Closed - Building Vacant,CLOS,1207 DELIQUIA DR                     ,http://cagismaps.hamilton-co.org/PropertyActivity/CagisReport?APD=VFP1700024,04/25/2017 12:00:00 AM +0000,39.09194713,-84.39286038,MT. WASHINGTON
YEAR-2  ,VFPR Second Year Registration,CLOSE-O ,Case Closed - Building Occupied,CLOS,3919 WEBER PL                        ,http://cagismaps.hamilton-co.org/PropertyActivity/CagisReport?APD=VFP1600505,04/25/2017 12:00:00 AM +0000,39.15778953,-84.54657479,NORTHSIDE
YEAR-2  ,VFPR Second Year Registration,CLOSE-V ,Case Closed - Building Vacant,CLOS,1944 ROCKLAND AV                     ,http://cagismaps.hamilton-co.org/PropertyActivity/CagisReport?APD=VFP1600746,04/24/2017 12:00:00 AM +0000,39.08948441,-84.38692674,MT. WASHINGTON
YEAR-2  ,VFPR Second Year Registration,CLOSE-O ,Case Closed - Building Occupied,CLOS,737 WOODLAWN AV                     ,http://cagismaps.hamilton-co.org/PropertyActivity/CagisReport?APD=VFP1600802,04/21/2017 12:00:00 AM +0000,39.10457429,-84.56801917,EAST PRICE HILL
YEAR-2  ,VFPR Second Year Registration,CLOSE-O ,Case Closed - Building Occupied,CLOS,131 73RD ST                         ,http://cagismaps.hamilton-co.org/PropertyActivity/CagisReport?APD=VFP1600751,04/21/2017 12:00:00 AM +0000,39.19711303,-84.48050887,CARTHAGE
YEAR-2  ,VFPR Second Year Registration,CLOSE-V ,Case Closed - Building Vacant,CLOS,4116 ST WILLIAMS AV                  ,http://cagismaps.hamilton-co.org/PropertyActivity/CagisReport?APD=VFP1600399,04/21/2017 12:00:00 AM +0000,39.10895332,-84.58648546,WEST PRICE HILL
YEAR-2  ,VFPR Second Year Registration,CLOSE-V ,Case Closed - Building Vacant,CLOS,2460 KIPLING AV                      ,http://cagismaps.hamilton-co.org/PropertyActivity/CagisReport?APD=VFP1600170,04/20/2017 12:00:00 AM +0000,39.20178288,-84.57305178,MT. AIRY
YEAR-2  ,VFPR Second Year Registration,CLOSE-V ,Case Closed - Building Vacant,CLOS,2922 DEBRECK AV                      ,http://cagismaps.hamilton-co.org/PropertyActivity/CagisReport?APD=VFP1600069,04/19/2017 12:00:00 AM +0000,39.14061836,-84.58408893,WESTWOOD
YEAR-2  ,VFPR Second Year Registration,CLOSE-V ,Case Closed - Building Vacant,CLOS,3145 SUNSHINE AV                     ,http://cagismaps.hamilton-co.org/propertyactivity/cagisreport?APD=VFP1500682,04/19/2017 12:00:00 AM +0000,39.14536963,-84.57888649,WESTWOOD
YEAR-2  ,VFPR Second Year Registration,CLOSE-V ,Case Closed - Building Vacant,CLOS,3739 BOUDINOT AV                     ,http://cagismaps.hamilton-co.org/propertyactivity/cagisreport?APD=VFP1500420,04/19/2017 12:00:00 AM +0000,39.158691,-84.60287308,WESTWOOD
YEAR-2  ,VFPR Second Year Registration,CLOSE-V ,Case Closed - Building Vacant,CLOS,4137 CHAMBERS ST                     ,http://cagismaps.hamilton-co.org/PropertyActivity/CagisReport?APD=VFP1600342,04/18/2017 12:00:00 AM +0000,39.16117773,-84.53413255,NORTHSIDE
YEAR-2  ,VFPR Second Year Registration,CLOSE-V ,Case Closed - Building Vacant,CLOS,6011 CLEPHANE AV                     ,http://cagismaps.hamilton-co.org/PropertyActivity/CagisReport?APD=VFP1600623,04/17/2017 12:00:00 AM +0000,39.15625735,-84.39178793,MADISONVILLE
YEAR-2  ,VFPR Second Year Registration,CLOSE-V ,Case Closed - Building Vacant,CLOS,4704 PEABODY AV                      ,http://cagismaps.hamilton-co.org/PropertyActivity/CagisReport?APD=VFP1600386,04/17/2017 12:00:00 AM +0000,39.15762857,-84.39627638,MADISONVILLE
YEAR-2  ,VFPR Second Year Registration,CLOSE-V ,Case Closed - Building Vacant,CLOS,6336 HILLSIDE AV                     ,http://cagismaps.hamilton-co.org/PropertyActivity/CagisReport?APD=VFP1600577,04/10/2017 12:00:00 AM +0000,39.10907896,-84.68370937,SAYLER PARK
YEAR-2  ,VFPR Second Year Registration,CIVIL-NM,Vacant - Not Maintained - Civil Fine Pending,OPEN,4223 MAD ANTHONY ST                  ,http://cagismaps.hamilton-co.org/PropertyActivity/CagisReport?APD=VFP1700051,04/07/2017 12:00:00 AM +0000,39.16398697,-84.53571317,NORTHSIDE
YEAR-2  ,VFPR Second Year Registration,VOID    ,Case Voided,CLOS,2127 HARRISON AV                     ,http://cagismaps.hamilton-co.org/PropertyActivity/CagisReport?APD=VFP1700062,03/31/2017 12:00:00 AM +0000,39.1334493,-84.56973589,SOUTH FAIRMOUNT
YEAR-2  ,VFPR Second Year Registration,CLOSE-V ,Case Closed - Building Vacant,CLOS,5715 KIEFER CT                       ,http://cagismaps.hamilton-co.org/PropertyActivity/CagisReport?APD=VFP1600691,03/21/2017 12:00:00 AM +0000,39.19369392,-84.53384583,COLLEGE HILL
YEAR-2  ,VFPR Second Year Registration,REGISTRD,Vacant - Registered Vacant,OPEN,2836 RUBERG AV                       ,http://cagismaps.hamilton-co.org/PropertyActivity/CagisReport?APD=VFP1700052,03/14/2017 12:00:00 AM +0000,39.13748444,-84.57123355,EAST WESTWOOD
YEAR-2  ,VFPR Second Year Registration,CLOSE-V ,Case Closed - Building Vacant,CLOS,2266 LOTH ST                         ,http://cagismaps.hamilton-co.org/PropertyActivity/CagisReport?APD=VFP1600160,03/14/2017 12:00:00 AM +0000,39.12227672,-84.51378516,MT. AUBURN
YEAR-2  ,VFPR Second Year Registration,FORCLOSD,Occupied - Foreclosure Filed - Still Occupied,OPEN,6801 VAN KIRK AV                     ,http://cagismaps.hamilton-co.org/PropertyActivity/CagisReport?APD=VFP1700048,03/13/2017 12:00:00 AM +0000,39.19326774,-84.48519671,CARTHAGE
YEAR-2  ,VFPR Second Year Registration,VOID    ,Case Voided,CLOS,6928 BRITTON AV                      ,http://cagismaps.hamilton-co.org/PropertyActivity/CagisReport?APD=VFP1700049,03/10/2017 12:00:00 AM +0000,39.15222201,-84.37613541,MADISONVILLE
YEAR-2  ,VFPR Second Year Registration,CLOSE-V ,Case Closed - Building Vacant,CLOS,6202 KENNEDY AV                      ,http://cagismaps.hamilton-co.org/PropertyActivity/CagisReport?APD=VFP1600677,03/10/2017 12:00:00 AM +0000,39.1838122,-84.413949,KENNEDY HEIGHTS
YEAR-2  ,VFPR Second Year Registration,CLOSE-V ,Case Closed - Building Vacant,CLOS,4012 WHETSEL AV                      ,http://cagismaps.hamilton-co.org/PropertyActivity/CagisReport?APD=VFP1600021,03/10/2017 12:00:00 AM +0000,39.14970896,-84.39355154,MADISONVILLE
YEAR-2  ,VFPR Second Year Registration,VOID    ,Case Voided,CLOS,5628 BRAMBLE AV                      ,http://cagismaps.hamilton-co.org/PropertyActivity/CagisReport?APD=VFP1700044,03/06/2017 12:00:00 AM +0000,39.15241336,-84.39946882,MADISONVILLE
YEAR-2  ,VFPR Second Year Registration,CLOSE-V ,Case Closed - Building Vacant,CLOS,5346 TANNER AV                       ,http://cagismaps.hamilton-co.org/PropertyActivity/CagisReport?APD=VFP1700006,03/02/2017 12:00:00 AM +0000,39.17143275,-84.4309736,PLEASANT RIDGE
YEAR-2  ,VFPR Second Year Registration,CLOSE-V ,Case Closed - Building Vacant,CLOS,2620 MELROSE AV                      ,http://cagismaps.hamilton-co.org/PropertyActivity/CagisReport?APD=VFP1700007,03/01/2017 12:00:00 AM +0000,39.12833859,-84.49021115,WALNUT HILLS
YEAR-2  ,VFPR Second Year Registration,CLOSE-V ,Case Closed - Building Vacant,CLOS,1452 STATE AV                        ,http://cagismaps.hamilton-co.org/PropertyActivity/CagisReport?APD=VFP1600158,03/01/2017 12:00:00 AM +0000,39.11374854,-84.55001367,LOWER PRICE HILL
YEAR-2  ,VFPR Second Year Registration,CLOSE-V ,Case Closed - Building Vacant,CLOS,1864 BLACKSTONE PL                   ,http://cagismaps.hamilton-co.org/PropertyActivity/CagisReport?APD=VFP1600754,02/27/2017 12:00:00 AM +0000,39.19636512,-84.4549774,ROSELAWN
YEAR-2  ,VFPR Second Year Registration,CLOSE-V ,Case Closed - Building Vacant,CLOS,5420 TANNER AV                       ,http://cagismaps.hamilton-co.org/PropertyActivity/CagisReport?APD=VFP1600498,02/23/2017 12:00:00 AM +0000,39.17216747,-84.43105024,PLEASANT RIDGE
YEAR-2  ,VFPR Second Year Registration,CLOSE-V ,Case Closed - Building Vacant,CLOS,2626 NORTH BEND RD                   ,http://cagismaps.hamilton-co.org/PropertyActivity/CagisReport?APD=VFP1600765,02/22/2017 12:00:00 AM +0000,39.19073293,-84.57158933,MT. AIRY
YEAR-2  ,VFPR Second Year Registration,CLOSE-V ,Case Closed - Building Vacant,CLOS,4722 CHICKERING AV                   ,http://cagismaps.hamilton-co.org/PropertyActivity/CagisReport?APD=VFP1600630,02/22/2017 12:00:00 AM +0000,39.17526311,-84.51196575,SPRING GROVE VILLAGE
YEAR-2  ,VFPR Second Year Registration,CLOSE-O ,Case Closed - Building Occupied,CLOS,6628 ECHO LN                         ,http://cagismaps.hamilton-co.org/PropertyActivity/CagisReport?APD=VFP1600155,02/16/2017 12:00:00 AM +0000,39.0921113,-84.37261894,MT. WASHINGTON
YEAR-2  ,VFPR Second Year Registration,CLOSE-V ,Case Closed - Building Vacant,CLOS,1747 GELLENBECK ST                   ,http://cagismaps.hamilton-co.org/PropertyActivity/CagisReport?APD=VFP1600747,02/15/2017 12:00:00 AM +0000,39.12163481,-84.58075513,WEST PRICE HILL
YEAR-2  ,VFPR Second Year Registration,CLOSE-V ,Case Closed - Building Vacant,CLOS,2908 PROBASCO CT                     ,http://cagismaps.hamilton-co.org/PropertyActivity/CagisReport?APD=VFP1600501,02/15/2017 12:00:00 AM +0000,39.13437999,-84.5288965,CUF
YEAR-2  ,VFPR Second Year Registration,CLOSE-V ,Case Closed - Building Vacant,CLOS,1243 AVON DR                         ,http://cagismaps.hamilton-co.org/PropertyActivity/CagisReport?APD=VFP1600203,02/09/2017 12:00:00 AM +0000,39.16516003,-84.47727657,NORTH AVONDALE - PADDOCK HILLS
YEAR-2  ,VFPR Second Year Registration,CLOSE-O ,Case Closed - Building Occupied,CLOS,3668 VINE ST                         ,http://cagismaps.hamilton-co.org/PropertyActivity/CagisReport?APD=VFP1600695,02/08/2017 12:00:00 AM +0000,39.15051899,-84.51004775,AVONDALE
YEAR-2  ,VFPR Second Year Registration,CLOSE-O ,Case Closed - Building Occupied,CLOS,3976 LOWRY AV                        ,http://cagismaps.hamilton-co.org/PropertyActivity/CagisReport?APD=VFP1600764,02/06/2017 12:00:00 AM +0000,39.15952953,-84.49399044,NORTH AVONDALE - PADDOCK HILLS
YEAR-2  ,VFPR Second Year Registration,CLOSE-V ,Case Closed - Building Vacant,CLOS,1628 BRUCE AV                        ,http://cagismaps.hamilton-co.org/PropertyActivity/CagisReport?APD=VFP1600766,11/22/2016 12:00:00 AM +0000,39.16741363,-84.54309773,NORTHSIDE
YEAR-2  ,VFPR Second Year Registration,CLOSE-V ,Case Closed - Building Vacant,CLOS,756 MCMAKIN AV                      ,http://cagismaps.hamilton-co.org/PropertyActivity/CagisReport?APD=VFP1600813,12/14/2016 12:00:00 AM +0000,39.17260605,-84.51884029,SPRING GROVE VILLAGE
YEAR-2  ,VFPR Second Year Registration,CLOSE-O ,Case Closed - Building Occupied,CLOS,3121 WEST TOWER AV                   ,http://cagismaps.hamilton-co.org/PropertyActivity/CagisReport?APD=VFP1600812,11/17/2016 12:00:00 AM +0000,39.13269746,-84.60614038,WESTWOOD
YEAR-2  ,VFPR Second Year Registration,VOID    ,Case Voided,CLOS,3121 WEST TOWER AV                   ,http://cagismaps.hamilton-co.org/PropertyActivity/CagisReport?APD=VFP1600811,11/10/2016 12:00:00 AM +0000,39.13269746,-84.60614038,WESTWOOD
YEAR-2  ,VFPR Second Year Registration,CLOSE-O ,Case Closed - Building Occupied,CLOS,1337 WITTEKIND TER                   ,http://cagismaps.hamilton-co.org/PropertyActivity/CagisReport?APD=VFP1600398,11/15/2016 12:00:00 AM +0000,39.20525068,-84.54009302,COLLEGE HILL
YEAR-2  ,VFPR Second Year Registration,VOID    ,Case Voided,CLOS,4026 8TH ST                          ,http://cagismaps.hamilton-co.org/PropertyActivity/CagisReport?APD=VFP1600397,07/27/2016 12:00:00 AM +0000,39.10723167,-84.58341345,WEST PRICE HILL
YEAR-2  ,VFPR Second Year Registration,CLOSE-V ,Case Closed - Building Vacant,CLOS,3224 CAVANAUGH AV                    ,http://cagismaps.hamilton-co.org/PropertyActivity/CagisReport?APD=VFP1600492,01/17/2017 12:00:00 AM +0000,39.14255271,-84.57208822,EAST WESTWOOD
YEAR-2  ,VFPR Second Year Registration,CLOSE-V ,Case Closed - Building Vacant,CLOS,4990 WESTERN HILLS AV                ,http://cagismaps.hamilton-co.org/PropertyActivity/CagisReport?APD=VFP1600390,08/30/2016 12:00:00 AM +0000,39.12174393,-84.60573476,WEST PRICE HILL
YEAR-2  ,VFPR Second Year Registration,CLOSE-O ,Case Closed - Building Occupied,CLOS,2814 CYPRESS WY                      ,http://cagismaps.hamilton-co.org/PropertyActivity/CagisReport?APD=VFP1600559,12/14/2016 12:00:00 AM +0000,39.17218807,-84.43689694,PLEASANT RIDGE
YEAR-2  ,VFPR Second Year Registration,CLOSE-O ,Case Closed - Building Occupied,CLOS,3853 KIRKUP AV                       ,http://cagismaps.hamilton-co.org/PropertyActivity/CagisReport?APD=VFP1600489,07/27/2016 12:00:00 AM +0000,39.18631168,-84.40591842,KENNEDY HEIGHTS
YEAR-2  ,VFPR Second Year Registration,REGISTRD,Vacant - Registered Vacant,OPEN,1119 RYLAND AV                       ,http://cagismaps.hamilton-co.org/PropertyActivity/CagisReport?APD=VFP1600409,08/04/2016 12:00:00 AM +0000,39.17851933,-84.47945554,BOND HILL
YEAR-2  ,VFPR Second Year Registration,CLOSE-V ,Case Closed - Building Vacant,CLOS,3215 BUELL ST                        ,http://cagismaps.hamilton-co.org/PropertyActivity/CagisReport?APD=VFP1600499,10/11/2016 12:00:00 AM +0000,39.14374912,-84.61623736,WESTWOOD
YEAR-2  ,VFPR Second Year Registration,CLOSE-V ,Case Closed - Building Vacant,CLOS,206 69TH ST                         ,http://cagismaps.hamilton-co.org/PropertyActivity/CagisReport?APD=VFP1600562,12/12/2016 12:00:00 AM +0000,39.19421328,-84.48450698,CARTHAGE
YEAR-2  ,VFPR Second Year Registration,CLOSE-V ,Case Closed - Building Vacant,CLOS,5980 SUNRIDGE DR                     ,http://cagismaps.hamilton-co.org/PropertyActivity/CagisReport?APD=VFP1600626,01/11/2017 12:00:00 AM +0000,39.19815932,-84.52899141,COLLEGE HILL
YEAR-2  ,VFPR Second Year Registration,CLOSE-O ,Case Closed - Building Occupied,CLOS,245 73RD ST                         ,http://cagismaps.hamilton-co.org/PropertyActivity/CagisReport?APD=VFP1600497,08/02/2016 12:00:00 AM +0000,39.19729305,-84.48443868,CARTHAGE
YEAR-2  ,VFPR Second Year Registration,CLOSE-V ,Case Closed - Building Vacant,CLOS,6818 MERWIN AV                       ,http://cagismaps.hamilton-co.org/PropertyActivity/CagisReport?APD=VFP1600693,01/11/2017 12:00:00 AM +0000,39.15315891,-84.37916201,MADISONVILLE
YEAR-2  ,VFPR Second Year Registration,CLOSE-V ,Case Closed - Building Vacant,CLOS,6385 SAVANNAH AV                     ,http://cagismaps.hamilton-co.org/PropertyActivity/CagisReport?APD=VFP1600683,01/26/2017 12:00:00 AM +0000,39.20943028,-84.55412304,COLLEGE HILL
YEAR-2  ,VFPR Second Year Registration,CLOSE-V ,Case Closed - Building Vacant,CLOS,2502 NORTH BEND RD                   ,http://cagismaps.hamilton-co.org/PropertyActivity/CagisReport?APD=VFP1600615,01/13/2017 12:00:00 AM +0000,39.19301296,-84.56848019,MT. AIRY
YEAR-2  ,VFPR Second Year Registration,VOID    ,Case Voided,CLOS,4822 MORSE ST                        ,http://cagismaps.hamilton-co.org/PropertyActivity/CagisReport?APD=VFP1600340,05/09/2016 12:00:00 AM +0000,39.12215505,-84.41482354,LINWOOD
YEAR-2  ,VFPR Second Year Registration,CLOSE-V ,Case Closed - Building Vacant,CLOS,4260 WILLIAMSON PL                   ,http://cagismaps.hamilton-co.org/PropertyActivity/CagisReport?APD=VFP1600503,12/06/2016 12:00:00 AM +0000,39.16525615,-84.53678713,NORTHSIDE
YEAR-2  ,VFPR Second Year Registration,CLOSE-V ,Case Closed - Building Vacant,CLOS,3106 MAPLELEAF AV                    ,http://cagismaps.hamilton-co.org/PropertyActivity/CagisReport?APD=VFP1600631,10/10/2016 12:00:00 AM +0000,39.17469303,-84.43012114,PLEASANT RIDGE
YEAR-2  ,VFPR Second Year Registration,CLOSE-V ,Case Closed - Building Vacant,CLOS,5757 WHITNEY AV                      ,http://cagismaps.hamilton-co.org/propertyactivity/cagisreport?APD=VFP1400221,01/16/2015 10:05:04 AM +0000,39.15388334,-84.39590023,MADISONVILLE
YEAR-2  ,VFPR Second Year Registration,CLOSE-V ,Case Closed - Building Vacant,CLOS,4125 WATTERSON ST                    ,http://cagismaps.hamilton-co.org/propertyactivity/cagisreport?APD=VFP1400216,10/12/2015 07:04:13 AM +0000,39.15049425,-84.39271916,MADISONVILLE
YEAR-2  ,VFPR Second Year Registration,CLOSE-V ,Case Closed - Building Vacant,CLOS,2811 ROSEBUD DR                      ,http://cagismaps.hamilton-co.org/propertyactivity/cagisreport?APD=VFP1400215,11/16/2015 03:29:54 PM +0000,39.13707413,-84.61630447,WESTWOOD
YEAR-2  ,VFPR Second Year Registration,CLOSE-V ,Case Closed - Building Vacant,CLOS,2701 MCKINLEY AV                     ,http://cagismaps.hamilton-co.org/propertyactivity/cagisreport?APD=VFP1400214,02/03/2015 08:08:41 AM +0000,39.14311732,-84.589291,WESTWOOD
YEAR-2  ,VFPR Second Year Registration,CLOSE-V ,Case Closed - Building Vacant,CLOS,3913 LIBERTY ST                      ,http://cagismaps.hamilton-co.org/propertyactivity/cagisreport?APD=VFP1400213,04/13/2015 08:55:55 AM +0000,39.11690004,-84.57861257,WEST PRICE HILL
YEAR-2  ,VFPR Second Year Registration,RENEWAL ,Renewal of Previous Year Registration,OPEN,1126 SETON AV                        ,http://cagismaps.hamilton-co.org/propertyactivity/cagisreport?APD=VFP1400212,10/22/2015 12:19:27 PM +0000,39.11262789,-84.57609265,EAST PRICE HILL
YEAR-2  ,VFPR Second Year Registration,CLOSE-V ,Case Closed - Building Vacant,CLOS,6657 KIRKLAND DR                     ,http://cagismaps.hamilton-co.org/propertyactivity/cagisreport?APD=VFP1400211,06/23/2015 03:17:45 PM +0000,39.21191499,-84.52950176,COLLEGE HILL
YEAR-2  ,VFPR Second Year Registration,CLOSE-V ,Case Closed - Building Vacant,CLOS,1644 MINION AV                       ,http://cagismaps.hamilton-co.org/propertyactivity/cagisreport?APD=VFP1400210,07/17/2015 09:47:55 AM +0000,39.11848817,-84.57581437,EAST PRICE HILL
YEAR-2  ,VFPR Second Year Registration,CLOSE-V ,Case Closed - Building Vacant,CLOS,3951 CLEROSE CIR                     ,http://cagismaps.hamilton-co.org/propertyactivity/cagisreport?APD=VFP1400209,09/16/2015 09:33:21 AM +0000,39.10381778,-84.58311495,WEST PRICE HILL
YEAR-2  ,VFPR Second Year Registration,CLOSE-V ,Case Closed - Building Vacant,CLOS,693 PEDRETTI AV                     ,http://cagismaps.hamilton-co.org/propertyactivity/cagisreport?APD=VFP1400208,10/30/2014 10:12:24 AM +0000,39.10722086,-84.59877516,WEST PRICE HILL
YEAR-2  ,VFPR Second Year Registration,CLOSE-V ,Case Closed - Building Vacant,CLOS,3117 MCHENRY AV                      ,http://cagismaps.hamilton-co.org/propertyactivity/cagisreport?APD=VFP1400207,02/03/2015 08:12:53 AM +0000,39.143902,-84.57818005,WESTWOOD
YEAR-2  ,VFPR Second Year Registration,CLOSE-V ,Case Closed - Building Vacant,CLOS,1126 RUTLEDGE AV                     ,http://cagismaps.hamilton-co.org/propertyactivity/cagisreport?APD=VFP1400206,02/24/2015 08:37:05 AM +0000,39.11266121,-84.58723353,WEST PRICE HILL
YEAR-2  ,VFPR Second Year Registration,CLOSE-V ,Case Closed - Building Vacant,CLOS,7027 BRITTON AV                      ,http://cagismaps.hamilton-co.org/propertyactivity/cagisreport?APD=VFP1400224,09/08/2015 10:48:52 AM +0000,39.15166951,-84.37378928,MADISONVILLE
YEAR-2  ,VFPR Second Year Registration,VOID    ,Case Voided,CLOS,2811 ROSEBUD DR                      ,http://cagismaps.hamilton-co.org/propertyactivity/cagisreport?APD=VFP1400223,10/16/2014 08:57:33 AM +0000,39.13707413,-84.61630447,WESTWOOD
YEAR-2  ,VFPR Second Year Registration,CLOSE-O ,Case Closed - Building Occupied,CLOS,5683 FOLCHI DR                       ,http://cagismaps.hamilton-co.org/propertyactivity/cagisreport?APD=VFP1400222,03/24/2015 10:23:53 AM +0000,39.19382747,-84.53938013,COLLEGE HILL
YEAR-2  ,VFPR Second Year Registration,CLOSE-V ,Case Closed - Building Vacant,CLOS,5575 MERYTON PL                      ,http://cagismaps.hamilton-co.org/propertyactivity/cagisreport?APD=VFP1400187,12/08/2014 11:47:25 AM +0000,39.19350618,-84.55835143,COLLEGE HILL
YEAR-2  ,VFPR Second Year Registration,RENEWAL ,Renewal of Previous Year Registration,OPEN,1787 TUXWORTH AV                     ,http://cagismaps.hamilton-co.org/propertyactivity/cagisreport?APD=VFP1400186,06/23/2015 10:38:53 AM +0000,39.12240917,-84.5925083,WEST PRICE HILL
YEAR-2  ,VFPR Second Year Registration,CLOSE-V ,Case Closed - Building Vacant,CLOS,1131 CHEREVILLA LN                   ,http://cagismaps.hamilton-co.org/propertyactivity/cagisreport?APD=VFP1400205,10/14/2015 12:24:41 PM +0000,39.11522993,-84.60555736,WEST PRICE HILL
YEAR-2  ,VFPR Second Year Registration,RENEWAL ,Renewal of Previous Year Registration,OPEN,3118 RUTH AV                         ,http://cagismaps.hamilton-co.org/propertyactivity/cagisreport?APD=VFP1400204,07/06/2015 12:22:25 PM +0000,39.13987739,-84.60805884,WESTWOOD
YEAR-2  ,VFPR Second Year Registration,CLOSE-V ,Case Closed - Building Vacant,CLOS,4519 GLENWAY AV                      ,http://cagismaps.hamilton-co.org/propertyactivity/cagisreport?APD=VFP1400203,12/22/2014 08:28:48 AM +0000,39.11299953,-84.58979589,WEST PRICE HILL
YEAR-2  ,VFPR Second Year Registration,CLOSE-V ,Case Closed - Building Vacant,CLOS,2899 SHAFFER AV                      ,http://cagismaps.hamilton-co.org/propertyactivity/cagisreport?APD=VFP1400202,08/15/2014 10:04:21 AM +0000,39.14579891,-84.59394868,WESTWOOD
YEAR-2  ,VFPR Second Year Registration,RENEWAL ,Renewal of Previous Year Registration,OPEN,6035 OAKWOOD AV                      ,http://cagismaps.hamilton-co.org/propertyactivity/cagisreport?APD=VFP1400201,03/06/2015 08:17:21 AM +0000,39.20152581,-84.55523672,COLLEGE HILL
YEAR-2  ,VFPR Second Year Registration,RENEWAL ,Renewal of Previous Year Registration,OPEN,1119 WILMONT CT                      ,http://cagismaps.hamilton-co.org/propertyactivity/cagisreport?APD=VFP1400200,05/19/2015 02:46:58 PM +0000,39.20128046,-84.53550206,COLLEGE HILL
YEAR-2  ,VFPR Second Year Registration,REGISTRD,Vacant - Registered Vacant,OPEN,726 GHOLSON AV                      ,http://cagismaps.hamilton-co.org/PropertyActivity/CagisReport?APD=VFP1600490,08/29/2016 12:00:00 AM +0000,39.14902273,-84.48899795,AVONDALE
YEAR-2  ,VFPR Second Year Registration,CLOSE-V ,Case Closed - Building Vacant,CLOS,4872 OVERLOOK AV                     ,http://cagismaps.hamilton-co.org/PropertyActivity/CagisReport?APD=VFP1600389,12/05/2016 12:00:00 AM +0000,39.12236304,-84.59961491,WEST PRICE HILL
YEAR-2  ,VFPR Second Year Registration,CIVIL-NM,Vacant - Not Maintained - Civil Fine Pending,OPEN,3715 HIGH POINT AV                   ,http://cagismaps.hamilton-co.org/PropertyActivity/CagisReport?APD=VFP1600557,11/08/2016 12:00:00 AM +0000,39.157425,-84.59801658,WESTWOOD
YEAR-2  ,VFPR Second Year Registration,CLOSE-V ,Case Closed - Building Vacant,CLOS,3963 STANDISH AV                     ,http://cagismaps.hamilton-co.org/PropertyActivity/CagisReport?APD=VFP1600507,10/20/2016 12:00:00 AM +0000,39.1841207,-84.40237262,KENNEDY HEIGHTS
YEAR-2  ,VFPR Second Year Registration,VOID    ,Case Voided,CLOS,5553 BOSWORTH PL                     ,http://cagismaps.hamilton-co.org/PropertyActivity/CagisReport?APD=VFP1600506,07/27/2016 12:00:00 AM +0000,39.17625683,-84.44271795,PLEASANT RIDGE
YEAR-2  ,VFPR Second Year Registration,VOID    ,Case Voided,CLOS,2450 MCMICKEN AV                     ,http://cagismaps.hamilton-co.org/PropertyActivity/CagisReport?APD=VFP1600697,09/19/2016 12:00:00 AM +0000,39.12704669,-84.53128002,CUF
YEAR-2  ,VFPR Second Year Registration,VOID    ,Case Voided,CLOS,1119 WILMONT CT                      ,http://cagismaps.hamilton-co.org/PropertyActivity/CagisReport?APD=VFP1600393,07/27/2016 12:00:00 AM +0000,39.20128046,-84.53550206,COLLEGE HILL
YEAR-2  ,VFPR Second Year Registration,CLOSE-O ,Case Closed - Building Occupied,CLOS,6434 LISBON AV                       ,http://cagismaps.hamilton-co.org/PropertyActivity/CagisReport?APD=VFP1600680,12/14/2016 12:00:00 AM +0000,39.18814922,-84.43493373,PLEASANT RIDGE
YEAR-2  ,VFPR Second Year Registration,CLOSE-V ,Case Closed - Building Vacant,CLOS,1242 AYERSHIRE AV                    ,http://cagismaps.hamilton-co.org/PropertyActivity/CagisReport?APD=VFP1600576,09/07/2016 12:00:00 AM +0000,39.07534155,-84.37064715,MT. WASHINGTON
YEAR-2  ,VFPR Second Year Registration,CLOSE-V ,Case Closed - Building Vacant,CLOS,1731 ASHBROOK DR                     ,http://cagismaps.hamilton-co.org/PropertyActivity/CagisReport?APD=VFP1600574,11/01/2016 12:00:00 AM +0000,39.12252936,-84.59649602,WEST PRICE HILL
YEAR-2  ,VFPR Second Year Registration,CLOSE-V ,Case Closed - Building Vacant,CLOS,3268 VITTMER AV                      ,http://cagismaps.hamilton-co.org/PropertyActivity/CagisReport?APD=VFP1600573,08/31/2016 12:00:00 AM +0000,39.13941244,-84.61262955,WESTWOOD
YEAR-2  ,VFPR Second Year Registration,CLOSE-V ,Case Closed - Building Vacant,CLOS,1426 CORVALLIS AV                    ,http://cagismaps.hamilton-co.org/PropertyActivity/CagisReport?APD=VFP1600570,09/19/2016 12:00:00 AM +0000,39.19638957,-84.46523445,ROSELAWN
YEAR-2  ,VFPR Second Year Registration,CLOSE-V ,Case Closed - Building Vacant,CLOS,5310 FOX RD                          ,http://cagismaps.hamilton-co.org/PropertyActivity/CagisReport?APD=VFP1600400,08/16/2016 12:00:00 AM +0000,39.18672679,-84.57753402,MT. AIRY
YEAR-2  ,VFPR Second Year Registration,CLOSE-V ,Case Closed - Building Vacant,CLOS,5479 HOKEL LN                        ,http://cagismaps.hamilton-co.org/PropertyActivity/CagisReport?APD=VFP1600567,01/11/2017 12:00:00 AM +0000,39.10590459,-84.38910139,MT. WASHINGTON
YEAR-2  ,VFPR Second Year Registration,CLOSE-V ,Case Closed - Building Vacant,CLOS,2606 GRACEWOOD AV                    ,http://cagismaps.hamilton-co.org/PropertyActivity/CagisReport?APD=VFP1600564,11/02/2016 12:00:00 AM +0000,39.19480725,-84.57719063,MT. AIRY
YEAR-2  ,VFPR Second Year Registration,CLOSE-V ,Case Closed - Building Vacant,CLOS,2957 WARDALL AV                      ,http://cagismaps.hamilton-co.org/PropertyActivity/CagisReport?APD=VFP1600512,08/17/2016 12:00:00 AM +0000,39.15663752,-84.59721703,WESTWOOD
YEAR-2  ,VFPR Second Year Registration,CLOSE-V ,Case Closed - Building Vacant,CLOS,2921 GRASSELLI AV                    ,http://cagismaps.hamilton-co.org/PropertyActivity/CagisReport?APD=VFP1600675,09/15/2016 12:00:00 AM +0000,39.14054252,-84.58357179,WESTWOOD
YEAR-2  ,VFPR Second Year Registration,CLOSE-V ,Case Closed - Building Vacant,CLOS,7116 DILLWARD ST                     ,http://cagismaps.hamilton-co.org/PropertyActivity/CagisReport?APD=VFP1600504,12/12/2016 12:00:00 AM +0000,39.1964012,-84.48520055,CARTHAGE
YEAR-2  ,VFPR Second Year Registration,VOID    ,Case Voided,CLOS,6035 OAKWOOD AV                      ,http://cagismaps.hamilton-co.org/propertyactivity/cagisreport?APD=VFP1400130,05/27/2014 08:52:22 AM +0000,39.20152581,-84.55523672,COLLEGE HILL
YEAR-2  ,VFPR Second Year Registration,RENEWAL ,Renewal of Previous Year Registration,OPEN,1166 GROESBECK RD                    ,http://cagismaps.hamilton-co.org/propertyactivity/cagisreport?APD=VFP1400129,06/15/2015 01:50:07 PM +0000,39.19449919,-84.5385067,COLLEGE HILL
YEAR-2  ,VFPR Second Year Registration,CLOSE-O ,Case Closed - Building Occupied,CLOS,5787 LANTANA AV                      ,http://cagismaps.hamilton-co.org/propertyactivity/cagisreport?APD=VFP1400123,03/06/2015 08:36:38 AM +0000,39.19759741,-84.54239083,COLLEGE HILL
YEAR-2  ,VFPR Second Year Registration,CLOSE-V ,Case Closed - Building Vacant,CLOS,3617 NEWTON AV                       ,http://cagismaps.hamilton-co.org/PropertyActivity/CagisReport?APD=VFP1600068,01/26/2017 12:00:00 AM +0000,39.14549001,-84.47201149,EVANSTON
